frame_id,type_classic_digital,format,environment,created_date,modified_date,postcode,site_no,inventory_site_no,location,postcode_area,postcode_district,postcode_sector,postcode_unit,address,region,country_code,town,illumination_type_id,number_of_slots,status,status_reason,longitude,latitude,distance_to_closest_school,panel_number,station,size_code,size_group_code,impact_weight,production_rate_card,airport,price_entity_id,broadsign_display_unit_id,broadsign_frame_id,broadsign_domain_id,linked_frame_ids,aspect_ratio_code,pixel_height,pixel_width,location_id,t_size,premium,production_rate_card_legacy,pricing_grade
1234604983,DIGITAL,DIGITAL_CROSSTRACK_48_SHEETS,UNDERGROUND,2022-10-01 16:26:27,2026-05-11 22:18:05,W1J 9DZ,GRPX04033,3776,POINT (51.50604991 -0.14174505),W,1J,9,DZ,VICTORIA LINE PLATFORM 4 SOUTHBOUND,London,UK,London West End,1,6,LIVE,,-0.14174505,51.50604991,637,01,Green Park,DX48,DX48,0.6027,,,LUDX48,62570424,,5123640,,DX48,1200,1920,w1j9dz,LARGE,0,,
1234605591,DIGITAL,DIGITAL_CROSSTRACK_48_SHEETS,UNDERGROUND,2022-10-01 16:26:28,2026-05-11 22:18:05,W1R 1FE,BONX04016,3765,POINT (51.51507211 -0.14940943),W,1R,1,FE,JUBILEE LINE PLATFORM 4 SOUTHBOUND,London,UK,London West End,1,6,LIVE,,-0.14940943,51.51507211,276,01,Bond Street,DX48,DX48,3.2426,,,LUDX48,62570408,,5123640,,DX48,1200,1920,,LARGE,0,,
1234605592,DIGITAL,DIGITAL_CROSSTRACK_48_SHEETS,UNDERGROUND,2022-10-01 16:26:28,2026-05-11 22:18:05,W1R 1FE,BONX04023,3765,POINT (51.51479806 -0.14937243),W,1R,1,FE,JUBILEE LINE PLATFORM 4 SOUTHBOUND,London,UK,London West End,1,6,LIVE,,-0.14937243,51.51479806,306,01,Bond Street,DX48,DX48,1.1446,,,LUDX48,62570416,,5123640,,DX48,1200,1920,,LARGE,0,,
1234605604,DIGITAL,DIGITAL_CROSSTRACK_48_SHEETS,UNDERGROUND,2022-10-01 16:26:26,2026-05-11 22:18:03,W1J 9DZ,GRPX05022,3776,POINT (51.50606544 -0.14002058),W,1J,9,DZ,JUBILEE LINE PLATFORM 5 NORTHBOUND,London,UK,London West End,1,6,LIVE,,-0.14002058,51.50606544,725,01,Green Park,DX48,DX48,0.919,,,LUDX48,62570448,,5123640,,DX48,1200,1920,w1j9dz,LARGE,0,,
1234605614,DIGITAL,DIGITAL_CROSSTRACK_48_SHEETS,UNDERGROUND,2022-10-01 16:26:28,2026-05-11 22:18:06,EC2M 7PP,LIVX04001,3538,POINT (51.51794346 -0.08286668),EC,2M,7,PP,CENTRAL LINE PLATFORM 4 EASTBOUND,London,UK,London City,1,6,LIVE,,-0.08286668,51.51794346,558,01,Liverpool Street,DX48,DX48,1.3663,,,LUDX48,62570362,,5123640,,DX48,1200,1920,ec2m7pp,LARGE,0,,
1234605615,DIGITAL,DIGITAL_CROSSTRACK_48_SHEETS,UNDERGROUND,2022-10-01 16:26:28,2026-05-11 22:18:06,EC2M 7PP,LIVX04033,3538,POINT (51.51847613 -0.08222107),EC,2M,7,PP,CENTRAL LINE PLATFORM 4 EASTBOUND,London,UK,London City,1,6,LIVE,,-0.08222107,51.51847613,579,01,Liverpool Street,DX48,DX48,0.3669,,,LUDX48,62570384,,5123640,,DX48,1200,1920,ec2m7pp,LARGE,0,,
1234605618,DIGITAL,DIGITAL_CROSSTRACK_48_SHEETS,UNDERGROUND,2022-10-01 16:26:28,2026-05-11 22:18:06,W1D 2LR,OXCX01022,3535,POINT (51.51547929 -0.13979289),W,1D,2,LR,CENTRAL LINE PLATFORM 1 WESTBOUND,London,UK,London West End,1,6,LIVE,,-0.13979289,51.51547929,468,01,Oxford Circus,DX48,DX48,0.7122,,,LUDX48,62570456,,5123640,,DX48,1200,1920,w1d2lr,LARGE,0,,
1234605619,DIGITAL,DIGITAL_CROSSTRACK_48_SHEETS,UNDERGROUND,2022-10-01 16:26:28,2026-05-11 22:18:06,W1D 2LR,OXCX01030,3535,POINT (51.51543182 -0.14017226),W,1D,2,LR,CENTRAL LINE PLATFORM 1 WESTBOUND,London,UK,London West End,1,6,LIVE,,-0.14017226,51.51543182,478,01,Oxford Circus,DX48,DX48,0.9244,,,LUDX48,62570464,,5123640,,DX48,1200,1920,w1d2lr,LARGE,0,,
1234605620,DIGITAL,DIGITAL_CROSSTRACK_48_SHEETS,UNDERGROUND,2022-10-01 16:26:29,2026-05-11 22:18:06,W1D 2LR,OXCX02014,3535,POINT (51.51558761 -0.14024023),W,1D,2,LR,CENTRAL LINE PLATFORM 2 EASTBOUND,London,UK,London West End,1,6,LIVE,,-0.14024023,51.51558761,462,01,Oxford Circus,DX48,DX48,0.8685,,,LUDX48,62570472,,5123640,,DX48,1200,1920,w1d2lr,LARGE,0,,
1234605621,DIGITAL,DIGITAL_CROSSTRACK_48_SHEETS,UNDERGROUND,2022-10-01 16:26:29,2026-05-11 22:18:06,W1D 2LR,OXCX02023,3535,POINT (51.51564311 -0.13980539),W,1D,2,LR,CENTRAL LINE PLATFORM 2 EASTBOUND,London,UK,London West End,1,6,LIVE,,-0.13980539,51.51564311,450,01,Oxford Circus,DX48,DX48,0.7355,,,LUDX48,62570480,,5123640,,DX48,1200,1920,w1d2lr,LARGE,0,,
1234605626,DIGITAL,DIGITAL_CROSSTRACK_48_SHEETS,UNDERGROUND,2022-10-01 16:26:27,2026-05-11 22:18:04,W1J 9HP,PICX03017,3536,POINT (51.50968649 -0.13484466),W,1J,9,HP,PICCADILLY LINE PLATFORM 3 EASTBOUND,London,UK,London West End,1,6,LIVE,,-0.13484466,51.50968649,208,01,Piccadilly Circus,DX48,DX48,0.2171,,,LUDX48,62570488,,5123640,,DX48,1200,1920,w1j9hp,LARGE,0,,
1234605630,DIGITAL,DIGITAL_CROSSTRACK_48_SHEETS,UNDERGROUND,2022-10-01 16:26:28,2026-05-11 22:18:05,SW1E 5ND,VICX03011,3780,POINT (51.49584704 -0.14291861),SW,1E,5,ND,VICTORIA LINE PLATFORM 3 NORTHBOUND,London,UK,Westminster,1,6,LIVE,,-0.14291861,51.49584704,164,01,Victoria,DX48,DX48,1.4383,,,LUDX48,62570504,,5123640,,DX48,1200,1920,sw1e5nd,LARGE,0,,
1234605631,DIGITAL,DIGITAL_CROSSTRACK_48_SHEETS,UNDERGROUND,2022-10-01 16:26:28,2026-05-11 22:18:05,SW1E 5ND,VICX03018,3780,POINT (51.49603888 -0.14279169),SW,1E,5,ND,VICTORIA LINE PLATFORM 3 NORTHBOUND,London,UK,Westminster,1,6,LIVE,,-0.14279169,51.49603888,157,01,Victoria,DX48,DX48,1.4673,,,LUDX48,62570512,,5123640,,DX48,1200,1920,sw1e5nd,LARGE,0,,
1234605632,DIGITAL,DIGITAL_CROSSTRACK_48_SHEETS,UNDERGROUND,2022-10-01 16:26:27,2026-05-11 22:18:05,SW1E 5ND,VICX04022,3780,POINT (51.49601481 -0.14242148),SW,1E,5,ND,VICTORIA LINE PLATFORM 4 SOUTHBOUND,London,UK,Westminster,1,6,LIVE,,-0.14242148,51.49601481,131,01,Victoria,DX48,DX48,1.8578,,,LUDX48,62570520,,5123640,,DX48,1200,1920,sw1e5nd,LARGE,0,,
1234605633,DIGITAL,DIGITAL_CROSSTRACK_48_SHEETS,UNDERGROUND,2022-10-01 16:26:27,2026-05-11 22:18:05,SW1E 5ND,VICX04029,3780,POINT (51.49581538 -0.14253711),SW,1E,5,ND,VICTORIA LINE PLATFORM 4 SOUTHBOUND,London,UK,Westminster,1,6,LIVE,,-0.14253711,51.49581538,138,01,Victoria,DX48,DX48,1.5038,,,LUDX48,62570528,,5123640,,DX48,1200,1920,sw1e5nd,LARGE,0,,
1234605667,DIGITAL,D6,UNDERGROUND,2022-10-01 16:21:54,2026-05-11 22:03:42,SE10 8JA,CUTO01002,4068,POINT (51.48156719 -0.01124726),SE,10,8,JA,IN STATION ENTRANCE/EXIT AT STREET LEVEL,London,UK,Greenwich,3,6,LIVE,,-0.01124726,51.48156719,27,01,Cutty Sark Greenwich,D6,D6,0.5198,,,LUD6,57779296,,5123640,,D6LT,1080,1920,se108ja,SMALL,0,,
1234605898,DIGITAL,DIGITAL_CROSSTRACK_48_SHEETS,UNDERGROUND,2022-10-01 16:26:26,2026-05-11 22:18:03,W1J 9DZ,GRPX05013,3776,POINT (51.50606251 -0.13956618),W,1J,9,DZ,JUBILEE LINE PLATFORM 5 NORTHBOUND,London,UK,London West End,1,6,LIVE,,-0.13956618,51.50606251,710,01,Green Park,DX48,DX48,0.4135,,,LUDX48,62570440,,5123640,,DX48,1200,1920,w1j9dz,LARGE,0,,
1234605900,DIGITAL,DIGITAL_CROSSTRACK_48_SHEETS,UNDERGROUND,2022-10-01 16:26:27,2026-05-11 22:18:04,SW3 1ED,KNIX01016,3778,POINT (51.50142063 -0.16153319),SW,3,1,ED,PICCADILLY LINE PLATFORM 1 EASTBOUND,London,UK,Knightsbridge,1,6,LIVE,,-0.16153319,51.50142063,445,01,Knightsbridge,DX48,DX48,0.3418,,,LUDX48,62570400,,5123640,,DX48,1200,1920,sw31ed,LARGE,0,,
1234605901,DIGITAL,DIGITAL_CROSSTRACK_48_SHEETS,UNDERGROUND,2022-10-01 16:26:27,2026-05-11 22:18:04,SW3 1ED,KNIX01009,3778,POINT (51.50161169 -0.16123378),SW,3,1,ED,PICCADILLY LINE PLATFORM 1 EASTBOUND,London,UK,Knightsbridge,1,6,LIVE,,-0.16123378,51.50161169,462,01,Knightsbridge,DX48,DX48,0.5243,,,LUDX48,62570392,,5123640,,DX48,1200,1920,sw31ed,LARGE,0,,
1234606450,DIGITAL,D6,RAIL,2022-10-01 16:25:23,2026-05-11 22:05:54,G5 9NR,BDST01009,4181,POINT (55.85197951 -4.258309),G,5,9,NR,ticket hall concourse,Central Scotland,UK,Glasgow South,3,6,LIVE,,-4.258309,55.85197951,762,01,Bridge Street,D6,D6,0.074,,,NRD6,57779935,,5123640,,D6LT,1080,1920,g59nr,SMALL,0,,
1234606469,DIGITAL,D6,RAIL,2022-10-01 16:25:22,2026-05-11 22:05:54,G1 2JZ,BNNC01001,3961,POINT (55.86237952 -4.25336388),G,1,2,JZ,concourse foot of travelator to Queen Street station,Central Scotland,UK,Glasgow North,3,6,LIVE,,-4.25336388,55.86237952,756,01,Buchanan Street,D6,D6,0.7681,,,NRD6,57781323,,5123640,,D6LT,1080,1920,g12jz,SMALL,0,,
1234606529,DIGITAL,D6,RAIL,2022-10-01 16:25:22,2026-05-11 22:05:54,G1 2JZ,BNNT01001,3961,POINT (55.86253304 -4.25334502),G,1,2,JZ,ticket hall concourse,Central Scotland,UK,Glasgow North,3,6,LIVE,,-4.25334502,55.86253304,747,01,Buchanan Street,D6,D6,1.4272,,,NRD6,57781135,,5123640,,D6LT,1080,1920,g12jz,SMALL,0,,
1234606534,DIGITAL,D6,RAIL,2022-10-01 16:25:22,2026-05-11 22:05:54,G1 2JZ,BNNT01006,3961,POINT (55.86252633 -4.25328609),G,1,2,JZ,ticket hall concourse,Central Scotland,UK,Glasgow North,3,6,LIVE,,-4.25328609,55.86252633,750,01,Buchanan Street,D6,D6,1.3139,,,NRD6,57779446,,5123640,,D6LT,1080,1920,g12jz,SMALL,0,,
1234606539,DIGITAL,D6,RAIL,2022-10-01 16:25:21,2026-05-11 22:05:54,G1 2JZ,BNNT01011,3961,POINT (55.86241492 -4.25333027),G,1,2,JZ,ticket hall concourse,Central Scotland,UK,Glasgow North,3,6,LIVE,,-4.25333027,55.86241492,756,01,Buchanan Street,D6X,D6,1,,,NRD6X,57779373,,5123640,,D6LT,1080,1920,g12jz,SMALL,1,,
1234606544,DIGITAL,12,RAIL,2022-10-01 16:18:07,2026-05-11 22:29:47,G1 2JZ,BNNT01016,3961,POINT (55.86238817 -4.25335543),G,1,2,JZ,ticket hall concourse,Central Scotland,UK,Glasgow North,3,6,LIVE,,-4.25335543,55.86238817,756,01,Buchanan Street,D12X,12,1,,,NRD12X,57778740,,5123640,,D12GS,1080,1920,g12jz,MEDIUM,1,,
1234606553,DIGITAL,D6,RAIL,2022-10-01 16:25:23,2026-05-11 22:05:55,G1 2JZ,BNNX01003,3961,POINT (55.86225197 -4.25366238),G,1,2,JZ,inner circle platform towards Cowcaddens,Central Scotland,UK,Glasgow North,3,6,LIVE,,-4.25366238,55.86225197,750,01,Buchanan Street,D6,D6,0.7333,,,NRD6,57780007,,5123640,,D6LT,1080,1920,g12jz,SMALL,0,,
1234606562,DIGITAL,D6,RAIL,2022-10-01 16:25:23,2026-05-11 22:05:55,G1 2JZ,BNNX01012,3961,POINT (55.86240365 -4.25359972),G,1,2,JZ,inner circle platform towards Cowcaddens,Central Scotland,UK,Glasgow North,3,6,LIVE,,-4.25359972,55.86240365,743,01,Buchanan Street,D6,D6,0.6139,,,NRD6,57780246,,5123640,,D6LT,1080,1920,g12jz,SMALL,0,,
1234606590,DIGITAL,D6,RAIL,2022-10-01 16:25:24,2026-05-11 22:05:56,G51 1AS,CNKT01001,4190,POINT (55.85218152 -4.29449359),G,51,1,AS,ticket hall concourse,Central Scotland,UK,Glasgow South,3,6,LIVE,,-4.29449359,55.85218152,407,01,Cessnock,D6,D6,0.0613,,,NRD6,57779504,,5123640,,D6LT,1080,1920,g511as,SMALL,0,,
1234606616,DIGITAL,D6,RAIL,2022-10-01 16:25:22,2026-05-11 22:05:54,G4 0SN,CDEC01003A,4173,POINT (55.86796259 -4.25968478),G,4,0,SN,lower concourse to platforms,Central Scotland,UK,Glasgow North,3,6,LIVE,,-4.25968478,55.86796259,187,01,Cowcaddens,D6,D6,0.0642,,,NRD6,57779254,,5123640,,D6LT,1080,1920,g40sn,SMALL,0,,
1234606652,DIGITAL,D6,RAIL,2022-10-01 16:25:22,2026-05-11 22:05:54,G4 0SN,CDET01006,4173,POINT (55.86815749 -4.25995166),G,4,0,SN,ticket hall concourse,Central Scotland,UK,Glasgow North,3,6,LIVE,,-4.25995166,55.86815749,178,01,Cowcaddens,D6,D6,0.0925,,,NRD6,57779147,,5123640,,D6LT,1080,1920,g40sn,SMALL,0,,
1234606728,DIGITAL,D6,RAIL,2022-10-01 16:25:22,2026-05-11 22:05:54,G51 2YJ,GOVP02010,4179,POINT (55.86228626 -4.31072802),G,51,2,YJ,outer circle platform towards Partick,Central Scotland,UK,Glasgow South,3,6,LIVE,,-4.31072802,55.86228626,269,01,Govan,D6,D6,0.0342,,,NRD6,57779322,,5123640,,D6LT,1080,1920,g512yj,SMALL,0,,
1234606731,DIGITAL,D6,RAIL,2022-10-01 16:25:22,2026-05-11 22:05:54,G51 2YJ,GOVT01001,4179,POINT (55.86230747 -4.31059513),G,51,2,YJ,ticket hall concourse,Central Scotland,UK,Glasgow South,3,6,LIVE,,-4.31059513,55.86230747,263,01,Govan,D6,D6,0.1002,,,NRD6,57779225,,5123640,,D6LT,1080,1920,g512yj,SMALL,0,,
1234606740,DIGITAL,D6,RAIL,2022-10-01 16:25:22,2026-05-11 22:05:54,G12 8SH,HIHC01001,4176,POINT (55.87515201 -4.29337254),G,12,8,SH,mid landing concourse,Central Scotland,UK,Glasgow North,3,6,LIVE,,-4.29337254,55.87515201,309,01,Hillhead,D6,D6,0.6591,,,NRD6,57778861,,5123640,,D6LT,1080,1920,g128sh,SMALL,0,,
1234606742,DIGITAL,D6,RAIL,2022-10-01 16:25:22,2026-05-11 22:05:54,G12 8SH,HIHC01003,4176,POINT (55.87512417 -4.29342216),G,12,8,SH,mid landing concourse,Central Scotland,UK,Glasgow North,3,6,LIVE,,-4.29342216,55.87512417,305,01,Hillhead,D6,D6,0.5327,,,NRD6,57782138,,5123640,,D6LT,1080,1920,g128sh,SMALL,0,,
1234606767,DIGITAL,D6,RAIL,2022-10-01 16:25:23,2026-05-11 22:05:55,G12 8SH,HIHX01006,4176,POINT (55.87535966 -4.29344227),G,12,8,SH,inner circle platform towards Kelvinhall,Central Scotland,UK,Glasgow North,3,6,LIVE,,-4.29344227,55.87535966,313,01,Hillhead,D6,D6,0.3067,,,NRD6,57779111,,5123640,,D6LT,1080,1920,g128sh,SMALL,0,,
1234606774,DIGITAL,D6,RAIL,2022-10-01 16:25:22,2026-05-11 22:05:54,G12 8SH,HIHX01013,4176,POINT (55.87540179 -4.29339802),G,12,8,SH,inner circle platform towards Kelvinhall,Central Scotland,UK,Glasgow North,3,6,LIVE,,-4.29339802,55.87540179,318,01,Hillhead,D6,D6,0.3272,,,NRD6,57780080,,5123640,,D6LT,1080,1920,g128sh,SMALL,0,,
1234606817,DIGITAL,D6,RAIL,2022-10-01 16:25:21,2026-05-11 22:05:54,G51 2UB,IBRX01009,4172,POINT (55.85448847 -4.30435554),G,51,2,UB,inner circle platform towards Cessnock,Central Scotland,UK,Glasgow South,3,6,LIVE,,-4.30435554,55.85448847,350,01,Ibrox,D6,D6,0.0634,,,NRD6,57779976,,5123640,,D6LT,1080,1920,g512ub,SMALL,0,,
1234606828,DIGITAL,D6,RAIL,2022-10-01 16:25:23,2026-05-11 22:05:55,G4 9HG,KVBC01010,4185,POINT (55.87428402 -4.27976492),G,4,9,HG,mid landing concourse,Central Scotland,UK,Glasgow North,3,6,LIVE,,-4.27976492,55.87428402,84,01,Kelvinbridge,D6,D6,0.1203,,,NRD6,57780329,,5123640,,D6LT,1080,1920,g49hg,SMALL,0,,
1234606871,DIGITAL,D6,RAIL,2022-10-01 16:25:23,2026-05-11 22:05:55,G11 5RA,KVHT01002,4186,POINT (55.87104114 -4.30004947),G,11,5,RA,ticket hall concourse,Central Scotland,UK,Glasgow North,3,6,LIVE,,-4.30004947,55.87104114,314,01,Kelvinhall,D6,D6,0.2251,,,NRD6,57779483,,5123640,,D6LT,1080,1920,g115ra,SMALL,0,,
1234606875,DIGITAL,D6,RAIL,2022-10-01 16:25:23,2026-05-11 22:05:55,G11 5RA,KVHT01006,4186,POINT (55.87098095 -4.30001192),G,11,5,RA,ticket hall concourse,Central Scotland,UK,Glasgow North,3,6,LIVE,,-4.30001192,55.87098095,320,01,Kelvinhall,D6,D6,0.1589,,,NRD6,57782767,,5123640,,D6LT,1080,1920,g115ra,SMALL,0,,
1234606906,DIGITAL,D6,RAIL,2022-10-01 16:25:23,2026-05-11 22:05:55,G41 1AH,KNKT01002,4184,POINT (55.85033222 -4.28791933),G,41,1,AH,ticket hall concourse,Central Scotland,UK,Glasgow South,3,6,LIVE,,-4.28791933,55.85033222,318,01,Kinning Park,D6,D6,0.0504,,,NRD6,57780782,,5123640,,D6LT,1080,1920,g411at,SMALL,0,,
1234606940,DIGITAL,D6,RAIL,2022-10-01 16:25:22,2026-05-11 22:05:54,G11 6DB,PTIP02005,4175,POINT (55.86996452 -4.30851382),G,11,6,DB,outer circle platform towards Kelvinhall,Central Scotland,UK,Glasgow North,3,6,LIVE,,-4.30851382,55.86996452,269,01,Partick,D6,D6,0.4932,,,NRD6,57779115,,5123640,,D6LT,1080,1920,g116db,SMALL,0,,
1234606949,DIGITAL,D6,RAIL,2022-10-01 16:25:23,2026-05-11 22:05:55,G11 6DB,PTIT01003,4175,POINT (55.86988592 -4.30863292),G,11,6,DB,ticket hall concourse,Central Scotland,UK,Glasgow North,3,6,LIVE,,-4.30863292,55.86988592,279,01,Partick,D6,D6,0.6568,,,NRD6,57780366,,5123640,,D6LT,1080,1920,g116db,SMALL,0,,
1234606954,DIGITAL,D6,RAIL,2022-10-01 16:25:23,2026-05-11 22:05:55,G11 6DB,PTIT01008,4175,POINT (55.8698244 -4.30852349),G,11,6,DB,ticket hall concourse,Central Scotland,UK,Glasgow North,3,6,LIVE,,-4.30852349,55.8698244,284,01,Partick,D6,D6,0.416,,,NRD6,57780694,,5123640,,D6LT,1080,1920,g116db,SMALL,0,,
1234606976,DIGITAL,D6,RAIL,2022-10-01 16:25:22,2026-05-11 22:05:54,G5 8QF,SDDC01002,4180,POINT (55.84999229 -4.2755879),G,5,8,QF,mid landing concourse,Central Scotland,UK,Glasgow South,3,6,LIVE,,-4.2755879,55.84999229,489,01,Shields Road,D6,D6,0.0843,,,NRD6,57779339,,5123640,,D6LT,1080,1920,g58qf,SMALL,0,,
1234607004,DIGITAL,D6,RAIL,2022-10-01 16:25:23,2026-05-11 22:05:55,G5 8QF,SDDT01001,4180,POINT (55.85001788 -4.27542697),G,5,8,QF,ticket hall concourse,Central Scotland,UK,Glasgow South,3,6,LIVE,,-4.27542697,55.85001788,490,01,Shields Road,D6,D6,0.0731,,,NRD6,57779392,,5123640,,D6LT,1080,1920,g58qf,SMALL,0,,
1234607056,DIGITAL,D6,RAIL,2022-10-01 16:25:23,2026-05-11 22:05:55,G1 4DB,SEOP01012,4170,POINT (55.85776548 -4.25527863),G,1,4,DB,inner circle platform towards Buchanan Street,Central Scotland,UK,Glasgow North,3,6,LIVE,,-4.25527863,55.85776548,1037,01,St Enoch,D6,D6,0.1346,,,NRD6,57779487,,5123640,,D6LT,1080,1920,g14db,SMALL,0,,
1234607069,DIGITAL,D6,RAIL,2022-10-01 16:25:22,2026-05-11 22:05:54,G1 4DB,SEOP02011,4170,POINT (55.85758114 -4.25498406),G,1,4,DB,outer circle platform towards Bridge Street,Central Scotland,UK,Glasgow North,3,6,LIVE,,-4.25498406,55.85758114,1061,01,St Enoch,D6,D6,0.1435,,,NRD6,57779733,,5123640,,D6LT,1080,1920,g14db,SMALL,0,,
1234607074,DIGITAL,D6,RAIL,2022-10-01 16:25:21,2026-05-11 22:05:53,G1 4DB,SEOT01001,4170,POINT (55.85784753 -4.25499968),G,1,4,DB,ticket hall concourse,Central Scotland,UK,Glasgow North,3,6,LIVE,,-4.25499968,55.85784753,1050,01,St Enoch,D6,D6,0.2585,,,NRD6,57778996,,5123640,,D6LT,1080,1920,g14db,SMALL,0,,
1234607077,DIGITAL,D6,RAIL,2022-10-01 16:25:21,2026-05-11 22:05:53,G1 4DB,SEOT01004,4170,POINT (55.85779323 -4.25501033),G,1,4,DB,ticket hall concourse,Central Scotland,UK,Glasgow North,3,6,LIVE,,-4.25501033,55.85779323,1051,01,St Enoch,D6,D6,0.2827,,,NRD6,57780040,,5123640,,D6LT,1080,1920,g14db,SMALL,0,,
1234607088,DIGITAL,D6,RAIL,2022-10-01 16:25:23,2026-05-11 22:05:55,G1 4DB,SEOT01015,4170,POINT (55.85780914 -4.25517939),G,1,4,DB,ticket hall concourse,Central Scotland,UK,Glasgow North,3,6,LIVE,,-4.25517939,55.85780914,1041,01,St Enoch,D6,D6,0.2561,,,NRD6,57779228,,5123640,,D6LT,1080,1920,g14db,SMALL,0,,
1234607090,DIGITAL,D6,RAIL,2022-10-01 16:25:23,2026-05-11 22:05:55,G1 4DB,SEOT01017,4170,POINT (55.85786409 -4.25515257),G,1,4,DB,ticket hall concourse,Central Scotland,UK,Glasgow North,3,6,LIVE,,-4.25515257,55.85786409,1040,01,St Enoch,D6,D6,0.2478,,,NRD6,57780124,,5123640,,D6LT,1080,1920,g14db,SMALL,0,,
1234607139,DIGITAL,D6,RAIL,2022-10-01 16:25:23,2026-05-11 22:05:55,G4 9AH,SGCC01013,4178,POINT (55.87125911 -4.26916382),G,4,9,AH,passageway to platforms,Central Scotland,UK,Glasgow North,3,6,LIVE,,-4.26916382,55.87125911,206,01,St Georges Cross,D6,D6,0.0405,,,NRD6,57780470,,5123640,,D6LT,1080,1920,g49ah,SMALL,0,,
1234607142,DIGITAL,D6,RAIL,2022-10-01 16:25:22,2026-05-11 22:05:54,G4 9AH,SGCC01703,4178,POINT (55.87119641 -4.26899023),G,4,9,AH,passageway to platforms,Central Scotland,UK,Glasgow North,3,6,LIVE,,-4.26899023,55.87119641,194,01,St Georges Cross,D6,D6,0.0456,,,NRD6,57782378,,5123640,,D6LT,1080,1920,g49ah,SMALL,0,,
1234607176,DIGITAL,D6,RAIL,2022-10-01 16:25:23,2026-05-11 22:05:55,G5 8NB,WSST01005,4182,POINT (55.84951351 -4.26568324),G,5,8,NB,ticket hall concourse,Central Scotland,UK,Glasgow South,3,6,LIVE,,-4.26568324,55.84951351,582,01,West Street,D6,D6,0.0321,,,NRD6,57779396,,5123640,,D6LT,1080,1920,g58nb,SMALL,0,,
1234625411,DIGITAL,D6,RAIL,2022-10-01 16:26:06,2026-05-11 22:13:50,BS34 8PU,BPWWR1701,4198,POINT (51.51415013 -2.54324714),BS,34,8,PU,in waiting area/cafe at bridge level,West,UK,Bristol,3,6,LIVE,,-2.54324714,51.51415013,285,01,Bristol Parkway,D6,D6,0.6059,,,NRD6,57778878,,5123640,,D6LT,1080,1920,bs348pu,SMALL,0,,
1234625412,DIGITAL,D6,RAIL,2022-10-01 16:25:23,2026-05-11 22:05:55,G2 6HQ,CHCT01701,4187,POINT (55.86463891 -4.26966901),G,2,6,HQ,TICKET HALL,Central Scotland,UK,Glasgow North,3,6,LIVE,,-4.26966901,55.86463891,222,01,Glasgow Charing Cross,D6,D6,0.1206,,,NRD6,57778831,,5123640,,D6LT,1080,1920,g26hq,SMALL,0,,
1234625495,DIGITAL,D6,RAIL,2022-10-01 16:21:47,2026-05-11 22:03:34,SL6 1EW,MADC01001,4050,POINT (51.51866416 -0.72269617),SL,6,1,EW,subway from ticket halls to platforms,London,UK,Maidenhead,3,6,LIVE,,-0.72269617,51.51866416,296,01,Maidenhead,D6,D6,0.1355,,,NRD6,57780191,,5123640,,D6LT,1080,1920,sl61ew,SMALL,0,,
1234625497,DIGITAL,D6,RAIL,2022-10-01 16:22:39,2026-05-11 22:09:06,OX1 1HS,OXFT01005,4077,POINT (51.75349099 -1.27008227),OX,1,1,HS,TICKET HALL,Midlands,UK,Oxford,3,6,LIVE,,-1.27008227,51.75349099,430,01,Oxford,D6,D6,1.0925,,,NRD6,57780146,,5123640,,D6LT,1080,1920,ox11hs,SMALL,0,,
1234625498,DIGITAL,D6,RAIL,2022-10-01 16:25:23,2026-05-11 22:05:55,G11 6BU,PTKC01001,4175,POINT (55.86996318 -4.30929926),G,11,6,BU,subway leading to platform 1 eastbound,Central Scotland,UK,Glasgow North,3,6,LIVE,,-4.30929926,55.86996318,288,01,Partick,D6,D6,0.3833,,,NRD6,57779855,,5123640,,D6LT,1080,1920,g116bu,SMALL,0,,
1234625499,DIGITAL,D6,RAIL,2022-10-01 16:25:23,2026-05-11 22:05:55,PA1 1BS,PYGT01001,4188,POINT (55.8471102 -4.42438072),PA,1,1,BS,in booking hall,Central Scotland,UK,Paisley,3,6,LIVE,,-4.42438072,55.8471102,723,01,Paisley Gilmour Street,D6,D6,0.1837,,,NRD6,57779842,,5123640,,D6LT,1080,1920,pa11bs,SMALL,0,,
1234625501,DIGITAL,D6,RAIL,2022-10-01 16:25:22,2026-05-11 22:05:54,G1 3SL,GLCC01004,4177,POINT (55.85959131 -4.25727808),G,1,3,SL,corridor level - exit to Argyle Street south side,Central Scotland,UK,Glasgow North,3,6,LIVE,,-4.25727808,55.85959131,849,01,Glasgow Central,D6,D6,1.7079,,,NRD6,57779968,,5123640,,D6LT,1080,1920,g13sl,SMALL,0,,
1234625581,DIGITAL,D6,RAIL,2022-10-01 16:21:46,2026-05-11 22:03:33,SL1 1XW,SLGP02006,4047,POINT (51.51194875 -0.59167659),SL,1,1,XW,platform 2 - towards Reading,London,UK,Slough,3,6,LIVE,,-0.59167659,51.51194875,311,01,Slough,D6,D6,0.1529,,,NRD6,57784073,,5123640,,D6LT,1080,1920,sl11xw,SMALL,0,,
1234625582,DIGITAL,D6,RAIL,2022-10-01 16:21:46,2026-05-11 22:03:32,SL1 1XW,SLGP05001,4047,POINT (51.51233102 -0.59147341),SL,1,1,XW,platform 5 - towards London,London,UK,Slough,3,6,LIVE,,-0.59147341,51.51233102,272,01,Slough,D6,D6,0.261,,,NRD6,57779883,,5123640,,D6LT,1080,1920,sl11xw,SMALL,0,,
1234625584,DIGITAL,D6,RAIL,2022-10-01 16:24:41,2026-05-11 22:32:41,NE1 5DL,XCEC01003,4163,POINT (54.96914203 -1.61679958),NE,1,5,DL,in ticket hall concourse,North East,UK,Newcastle Upon Tyne,3,6,LIVE,,-1.61679958,54.96914203,206,01,Newcastle Central Station,D6,D6,2.1559,,,NRD6,57781189,,5123640,,D6LT,1080,1920,ne15dl,SMALL,0,,
1234626111,DIGITAL,D6,RAIL,2022-10-01 16:23:26,2026-05-11 22:16:18,M90 3RR,MIAP02701,4135,POINT (53.3651327 -2.27216449),M,90,3,RR,platform 2 (terminus) - trains to/from Manchester Liverpool,North West,UK,Manchester,3,6,LIVE,,-2.27216449,53.3651327,798,01,Manchester Airport,D6,D6,2.6372,,,NRD6,57779600,,5123640,,D6LT,1080,1920,m903rr,SMALL,0,,
1234626130,DIGITAL,D6,RAIL,2022-10-01 16:25:23,2026-05-11 22:05:55,EH12 5EY,HYMC01011,3964,POINT (55.94526913 -3.21797426),EH,12,5,EY,concourse above platforms,Central Scotland,UK,Edinburgh,3,6,LIVE,,-3.21797426,55.94526913,200,01,Haymarket,D6,D6,0.8442,,,NRD6,57778816,,5123640,,D6LT,1080,1920,eh125ey,SMALL,0,,
1234626131,DIGITAL,D6,RAIL,2022-10-01 16:25:23,2026-05-11 22:05:55,EH12 5EY,HYMC01012,3964,POINT (55.94535954 -3.21804008),EH,12,5,EY,concourse above platforms,Central Scotland,UK,Edinburgh,3,6,LIVE,,-3.21804008,55.94535954,190,01,Haymarket,D6,D6,0.205,,,NRD6,57779275,,5123640,,D6LT,1080,1920,eh125ey,SMALL,0,,
1234626132,DIGITAL,D6,RAIL,2022-10-01 16:25:23,2026-05-11 22:05:55,EH12 5EY,HYMC01013,3964,POINT (55.94536257 -3.21804201),EH,12,5,EY,concourse above platforms,Central Scotland,UK,Edinburgh,3,6,LIVE,,-3.21804201,55.94536257,189,01,Haymarket,D6,D6,0.8916,,,NRD6,57778820,,5123640,,D6LT,1080,1920,eh125ey,SMALL,0,,
1234626133,DIGITAL,D6,RAIL,2022-10-01 16:25:23,2026-05-11 22:05:55,EH12 5EY,HYMC01014,3964,POINT (55.94547751 -3.21812163),EH,12,5,EY,concourse above platforms,Central Scotland,UK,Edinburgh,3,6,LIVE,,-3.21812163,55.94547751,176,01,Haymarket,D6,D6,0.4547,,,NRD6,57780318,,5123640,,D6LT,1080,1920,eh125ey,SMALL,0,,
1234626134,DIGITAL,D6,RAIL,2022-10-01 16:25:23,2026-05-11 22:05:55,EH12 5EY,HYMC01015,3964,POINT (55.94547976 -3.21812284),EH,12,5,EY,concourse above platforms,Central Scotland,UK,Edinburgh,3,6,LIVE,,-3.21812284,55.94547976,176,01,Haymarket,D6,D6,0.8101,,,NRD6,57780105,,5123640,,D6LT,1080,1920,eh125ey,SMALL,0,,
1234626136,DIGITAL,D6,RAIL,2022-10-01 16:22:39,2026-05-11 22:09:06,SN1 1DQ,SDOC02002,4074,POINT (51.56566254 -1.78598164),SN,1,1,DQ,enclosed lounge area between platforms 1 and 3,South and South-East,UK,Swindon,3,6,LIVE,,-1.78598164,51.56566254,660,01,Swindon,D6,D6,0.5488,,,NRD6,57781962,,5123640,,D6LT,1080,1920,sn11dq,SMALL,0,,
1234626137,DIGITAL,D6,RAIL,2022-10-01 16:25:23,2026-05-11 22:05:55,EH12 5EY,HYMT01001,3964,POINT (55.94555815 -3.21813169),EH,12,5,EY,ticket hall area,Central Scotland,UK,Edinburgh,3,6,LIVE,,-3.21813169,55.94555815,168,01,Haymarket,D6,D6,0.4841,,,NRD6,57778683,,5123640,,D6LT,1080,1920,eh125ey,SMALL,0,,
1234626138,DIGITAL,D6,RAIL,2022-10-01 16:25:23,2026-05-11 22:05:55,EH12 5EY,HYMT01002,3964,POINT (55.94561522 -3.2181907),EH,12,5,EY,ticket hall area,Central Scotland,UK,Edinburgh,3,6,LIVE,,-3.2181907,55.94561522,161,01,Haymarket,D6,D6,0.3775,,,NRD6,57779289,,5123640,,D6LT,1080,1920,eh125ey,SMALL,0,,
1234626139,DIGITAL,D6,RAIL,2022-10-01 16:34:25,2026-05-11 22:04:30,EX4 4NT,EXDT01005,9864,POINT (50.72915134 -3.54327172),EX,4,4,NT,TICKET HALL,South West,UK,Exeter,3,6,LIVE,,-3.54327172,50.72915134,519,01,Exeter St Davids,D6,D6,2.3091,,,NRD6,57779457,,5123640,,D6LT,1080,1920,ex44nt,SMALL,0,,
1234626194,DIGITAL,D6,RAIL,2022-10-01 16:24:41,2026-05-11 22:32:42,NE1 5AH,XMMT01701,4168,POINT (54.97372366 -1.61299084),NE,1,5,AH,in ticket hall concourse,North East,UK,Newcastle Upon Tyne,3,6,LIVE,,-1.61299084,54.97372366,649,01,Newcastle Monument,D6,D6,0.8783,,,NRD6,57780565,,5123640,,D6LT,1080,1920,ne180aa,SMALL,0,,
1234626195,DIGITAL,D6,RAIL,2022-10-01 16:24:41,2026-05-11 22:32:42,NE1 5AH,XMMT01702,4168,POINT (54.97372946 -1.61304083),NE,1,5,AH,in ticket hall concourse,North East,UK,Newcastle Upon Tyne,3,6,LIVE,,-1.61304083,54.97372946,652,01,Newcastle Monument,D6,D6,0.6247,,,NRD6,57779775,,5123640,,D6LT,1080,1920,ne180aa,SMALL,0,,
1234626259,DIGITAL,D6,RAIL,2022-10-01 16:25:23,2026-05-11 22:05:55,EH12 5EY,HYMT01003,3964,POINT (55.94561372 -3.21810353),EH,12,5,EY,ticket hall area,Central Scotland,UK,Edinburgh,3,6,LIVE,,-3.21810353,55.94561372,164,01,Haymarket,D6,D6,0.7899,,,NRD6,57779507,,5123640,,D6LT,1080,1920,eh125ey,SMALL,0,,
1234626269,DIGITAL,D6,RAIL,2022-10-01 16:24:41,2026-05-11 22:32:41,NE1 7PF,XHAT01006,4164,POINT (54.97735257 -1.61387794),NE,1,7,PF,in ticket hall,North East,UK,Newcastle Upon Tyne,3,6,LIVE,,-1.61387794,54.97735257,618,01,Newcastle Haymarket,D6,D6,3.0786,,,NRD6,57778961,,5123640,,D6LT,1080,1920,ne17pf,SMALL,0,,
1234626391,DIGITAL,D6,RAIL,2022-10-01 16:26:07,2026-05-11 22:13:50,BS34 8PU,BPWC01001,4198,POINT (51.51382396 -2.54318233),BS,34,8,PU,overbridge,West,UK,Bristol,3,6,LIVE,,-2.54318233,51.51382396,321,01,Bristol Parkway,D6,D6,1.8188,,,NRD6,57779037,,5123640,,D6LT,1080,1920,bs348pu,SMALL,0,,
1234626455,DIGITAL,D6,RAIL,2022-10-01 16:34:25,2026-05-11 22:04:30,PL4 6AB,PLYT01101,9863,POINT (50.37740724 -4.14363332),PL,4,6,AB,ticket hall area,South West,UK,Plymouth,3,6,LIVE,,-4.14363332,50.37740724,330,01,Plymouth,D6,D6,0.8921,,,NRD6,57779990,,5123640,,D6LT,1080,1920,pl46ab,SMALL,0,,
1234626484,DIGITAL,D6,RAIL,2022-10-01 16:22:39,2026-05-11 22:09:06,GL51 8NP,CNMP01007,4080,POINT (51.89706934 -2.09988277),GL,51,8,NP,platform 1 - towards London,Midlands,UK,Cheltenham,3,6,LIVE,,-2.09988277,51.89706934,302,01,Cheltenham Spa,D6,D6,0.3848,,,NRD6,57779060,,5123640,,D6LT,1080,1920,gl518np,SMALL,0,,
1234626915,DIGITAL,D6,RAIL,2022-10-01 16:41:41,2026-05-11 22:29:23,AB11 6LX,ABDT01007,13692,POINT (57.14354813 -2.09825076),AB,11,6,LX,ticket hall and main concourse,North Scotland,UK,Aberdeen,3,6,LIVE,,-2.09825076,57.14354813,549,01,Aberdeen,D6,D6,1.8591,,,NRD6,57781591,,5123640,,D6LT,1080,1920,ab116lx,SMALL,0,,
1234627033,DIGITAL,D6,RAIL,2022-10-01 16:25:24,2026-05-11 22:05:55,G2 8DL,AGST01002,4189,POINT (55.85723052 -4.25060494),G,2,8,DL,in booking hall,Central Scotland,UK,Glasgow North,3,6,LIVE,,-4.25060494,55.85723052,1020,01,Glasgow Argyle Street,D6,D6,0.1134,,,NRD6,57779869,,5123640,,D6LT,1080,1920,g28dl,SMALL,0,,
1234627061,DIGITAL,D6,RAIL,2022-10-01 16:25:23,2026-05-11 22:05:55,G3 8LD,EXGT01003,4183,POINT (55.86156393 -4.2834632),G,3,8,LD,inside booking hall,Central Scotland,UK,Glasgow North,3,6,LIVE,,-4.2834632,55.86156393,340,01,Glasgow Exhibition Centre,D6,D6,0.2171,,,NRD6,57778905,,5123640,,D6LT,1080,1920,g38ld,SMALL,0,,
1234627101,DIGITAL,D6,RAIL,2022-10-01 16:41:41,2026-05-11 22:29:23,IV1 1LF,INVT01003,13690,POINT (57.47970633 -4.22404689),IV,1,1,LF,booking hall and concourse,North Scotland,UK,Inverness,3,6,LIVE,,-4.22404689,57.47970633,388,01,Inverness,D6,D6,0.2237,,,NRD6,57780819,,5123640,,D6LT,1080,1920,iv11lf,SMALL,0,,
1234925189,DIGITAL,DLF,ROADSIDE,2022-10-01 16:22:50,2026-05-11 22:11:41,NW2 1LX,5010,4113,POINT (51.57223146 -0.23065443),NW,2,1,LX,"M1 Approach/Staples Corner, Cricklewood",London,UK,Cricklewood,2,6,LIVE,,-0.23065443,51.57223146,475,01,,DM6,DLF,1.2648,,,RSDM6L,57783200,,5123637,,DM6 V2 - 480 X 720,720,480,nw21lx,,0,,
1234925650,DIGITAL,D6,RAIL,2022-10-01 16:21:47,2026-05-11 22:03:34,SW19 7NL,WIMCO1001,3985,POINT (51.42157673 -0.20648326),SW,19,7,NL,main concourse,London,UK,Wimbledon,3,6,LIVE,,-0.20648326,51.42157673,279,01,Wimbledon,D6,D6,1.0315,,,NRD6,57782811,,5123640,,D6LT,1080,1920,sw197nl,SMALL,0,,
1234925651,DIGITAL,D6,RAIL,2022-10-01 16:21:47,2026-05-11 22:03:34,SW19 7NL,WIMCO1002,3985,POINT (51.42135177 -0.20635719),SW,19,7,NL,main concourse,London,UK,Wimbledon,3,6,LIVE,,-0.20635719,51.42135177,300,01,Wimbledon,D6,D6,1.4339,,,NRD6,57779838,,5123640,,D6LT,1080,1920,sw197nl,SMALL,0,,
1234925700,DIGITAL,DLF,ROADSIDE,2022-10-01 16:22:50,2026-05-11 22:11:41,W3 0SL,0159,4115,POINT (51.52691147 -0.28376139),W,3,0,SL,"Lookers Tower A40 Western Ave/Dukes Rd, Acton (Westbound)",London,UK,Acton,2,6,LIVE,,-0.28376139,51.52691147,493,01,,DM6,DLF,1.2624,,,RSDM6L,57781405,,5123637,,DM6 V2 - 480 X 720,720,480,w30sl,,0,,
1234925732,DIGITAL,D6,RAIL,2022-10-01 16:21:46,2026-05-11 22:03:32,TW9 2NA,RMDC01015,3783,POINT (51.46307894 -0.30179783),TW,9,2,NA,overbridge,London,UK,Richmond (Surrey),3,6,LIVE,,-0.30179783,51.46307894,338,01,Richmond,D6,D6,0.5316,,,NRD6,57779286,,5123640,,D6LT,1080,1920,tw92na,SMALL,0,,
1234925733,DIGITAL,D6,RAIL,2022-10-01 16:21:46,2026-05-11 22:03:32,TW9 2NA,RMDT01003,3783,POINT (51.46327128 -0.30165513),TW,9,2,NA,TICKET HALL,London,UK,Richmond (Surrey),3,6,LIVE,,-0.30165513,51.46327128,315,01,Richmond,D6,D6,0.5504,,,NRD6,57781331,,5123640,,D6LT,1080,1920,tw92na,SMALL,0,,
1234926494,DIGITAL,D6,RAIL,2022-10-01 16:22:39,2026-05-11 22:09:06,CV1 2GR,CVNC01001,4076,POINT (52.40099647 -1.51379052),CV,1,2,GR,overbridge,Midlands,UK,Coventry,3,6,LIVE,,-1.51379052,52.40099647,129,01,Coventry,D6,D6,0.6346,,,NRD6,57779131,,5123640,,D6LT,1080,1920,cv130wy,SMALL,0,,
1234926531,DIGITAL,D6,RAIL,2022-10-01 16:22:39,2026-05-11 22:09:06,B40 1PJ,BHIC01006,3801,POINT (52.4505147 -1.72500895),B,40,1,PJ,inner concourse,Midlands,UK,Solihull area,3,6,LIVE,,-1.72500895,52.4505147,2298,01,Birmingham International,D6,D6,1.6783,,,NRD6,57779591,,5123640,,D6LT,1080,1920,b401pj,SMALL,0,,
1234926532,DIGITAL,D6,RAIL,2022-10-01 16:22:39,2026-05-11 22:09:06,B40 1PJ,BHIC01003,3801,POINT (52.45087024 -1.72527181),B,40,1,PJ,inner concourse,Midlands,UK,Solihull area,3,6,LIVE,,-1.72527181,52.45087024,2258,01,Birmingham International,D6,D6,1.3197,,,NRD6,57779992,,5123640,,D6LT,1080,1920,b401pj,SMALL,0,,
1234929072,DIGITAL,D6,RAIL,2022-10-01 16:21:44,2026-05-11 22:03:30,GU22 7AE,WOKC01001,3986,POINT (51.31881025 -0.55681564),GU,22,7,AE,overbridge,London,UK,Woking,3,6,LIVE,,-0.55681564,51.31881025,360,01,Woking,D6,D6,0.0442,,,NRD6,57779510,,5123640,,D6LT,1080,1920,gu227ae,SMALL,0,,
1234929073,DIGITAL,D6,RAIL,2022-10-01 16:21:44,2026-05-11 22:03:30,GU22 7AE,WOKC01002,3986,POINT (51.31851756 -0.55651778),GU,22,7,AE,overbridge,London,UK,Woking,3,6,LIVE,,-0.55651778,51.31851756,338,01,Woking,D6,D6,0.0592,,,NRD6,57778720,,5123640,,D6LT,1080,1920,gu227ae,SMALL,0,,
1234929450,DIGITAL,D6,RAIL,2022-10-01 16:21:38,2026-05-11 22:03:22,KT2 7AZ,NBTC01001,3991,POINT (51.41235968 -0.2839089),KT,2,7,AZ,subway between platforms,London,UK,Kingston,3,6,LIVE,,-0.2839089,51.41235968,222,01,Norbiton,D6,D6,0.1198,,,NRD6,57779024,,5123640,,D6LT,1080,1920,kt27az,SMALL,0,,
1234929451,DIGITAL,D6,RAIL,2022-10-01 16:21:37,2026-05-11 22:03:22,SW20 0JY,RPKC02002,3988,POINT (51.4092423 -0.23047347),SW,20,0,JY,subway from Approach Road ticket hall,London,UK,Raynes Park,3,6,LIVE,,-0.23047347,51.4092423,479,01,Raynes Park,D6,D6,0.0541,,,NRD6,57779913,,5123640,,D6LT,1080,1920,sw200jy,SMALL,0,,
1234929797,DIGITAL,D6,RAIL,2022-10-01 16:21:36,2026-05-11 22:03:20,TW9 2NA,RMDCO3002,3783,POINT (51.46336996 -0.30134825),TW,9,2,NA,concourse between gateline and platform,London,UK,Richmond (Surrey),3,6,LIVE,,-0.30134825,51.46336996,294,01,Richmond,D6,D6,1.1492,,,NRD6,57781531,,5123640,,D6LT,1080,1920,tw92na,SMALL,0,,
1234929798,DIGITAL,D6,RAIL,2022-10-01 16:21:36,2026-05-11 22:03:20,TW9 2NA,RMDCO3004,3783,POINT (51.46310673 -0.30129776),TW,9,2,NA,concourse between gateline and platform,London,UK,Richmond (Surrey),3,6,LIVE,,-0.30129776,51.46310673,318,01,Richmond,D6,D6,0.6252,,,NRD6,57778942,,5123640,,D6LT,1080,1920,tw92na,SMALL,0,,
1234930177,DIGITAL,D6,RAIL,2022-10-01 16:22:38,2026-05-11 22:09:05,CV1 2GR,CVNT01002,4076,POINT (52.40109867 -1.51429673),CV,1,2,GR,concourse,Midlands,UK,Coventry,3,6,LIVE,,-1.51429673,52.40109867,120,01,Coventry,D6,D6,2.1744,,,NRD6,57779208,,5123640,,D6LT,1080,1920,cv130wy,SMALL,0,,
1234930178,DIGITAL,D6,RAIL,2022-10-01 16:22:38,2026-05-11 22:09:06,CV1 2GR,CVNT01001,4076,POINT (52.40104221 -1.51368184),CV,1,2,GR,concourse,Midlands,UK,Coventry,3,6,LIVE,,-1.51368184,52.40104221,138,01,Coventry,D6,D6,1.8473,,,NRD6,57779003,,5123640,,D6LT,1080,1920,cv130wy,SMALL,0,,
1234931681,DIGITAL,D6,RAIL,2022-10-01 16:22:39,2026-05-11 22:09:06,ST16 2AA,STAT01001,4073,POINT (52.8038976 -2.12206983),ST,16,2,AA,ticket hall,Midlands,UK,Stafford,3,6,LIVE,,-2.12206983,52.8038976,288,01,Stafford,D6,D6,0.4369,,,NRD6,57780826,,5123640,,D6LT,1080,1920,st162aa,SMALL,0,,
1234931688,DIGITAL,D6,RAIL,2022-10-01 16:23:26,2026-05-11 22:16:19,SK3 9HZ,SPTC03004,4136,POINT (53.40556904 -2.16332015),SK,3,9,HZ,subway - platform 3 & 4,North West,UK,Stockport,3,6,LIVE,,-2.16332015,53.40556904,216,01,Stockport,D6,D6,1.1954,,,NRD6,57779544,,5123640,,D6LT,1080,1920,sk30ab,SMALL,0,,
1234931689,DIGITAL,D6,RAIL,2022-10-01 16:23:26,2026-05-11 22:16:19,SK3 9HZ,SPTC03003,4136,POINT (53.40551943 -2.16330966),SK,3,9,HZ,subway - platform 3 & 4,North West,UK,Stockport,3,6,LIVE,,-2.16330966,53.40551943,211,01,Stockport,D6,D6,1.1482,,,NRD6,57778978,,5123640,,D6LT,1080,1920,sk30ab,SMALL,0,,
1234931690,DIGITAL,D6,RAIL,2022-10-01 16:23:26,2026-05-11 22:16:19,SK3 9HZ,SPTC03007,4136,POINT (53.40566962 -2.16285695),SK,3,9,HZ,subway - platform 1 & 2,North West,UK,Stockport,3,6,LIVE,,-2.16285695,53.40566962,232,01,Stockport,D6,D6,1.3065,,,NRD6,57779040,,5123640,,D6LT,1080,1920,sk30ab,SMALL,0,,
1235081695,DIGITAL,D6,RAIL,2022-10-01 16:21:46,2026-05-11 22:03:32,KT10 8DY,ESHP04001,4045,POINT (51.37993125 -0.35269032),KT,10,8,DY,platform 4 - towards Woking,London,UK,Esher,3,6,LIVE,,-0.35269032,51.37993125,620,01,Esher,D6,D6,0.0388,,,NRD6,57780338,,5123640,,D6LT,1080,1920,kt108dy,SMALL,0,,
1235162614,DIGITAL,D6,RAIL,2022-10-01 16:21:48,2026-05-11 22:03:35,KT6 4PE,SUBC01002,4051,POINT (51.39245699 -0.30364465),KT,6,4,PE,overbridge,London,UK,Surbiton,3,6,LIVE,,-0.30364465,51.39245699,202,01,Surbiton,D6,D6,0.3336,,,NRD6,57780177,,5123640,,D6LT,1080,1920,kt64pe,SMALL,0,,
1235162616,DIGITAL,D6,RAIL,2022-10-01 16:21:48,2026-05-11 22:03:35,KT6 4PE,SUBC01003,4051,POINT (51.3926277 -0.30386499),KT,6,4,PE,overbridge,London,UK,Surbiton,3,6,LIVE,,-0.30386499,51.3926277,225,01,Surbiton,D6,D6,0.1809,,,NRD6,57779540,,5123640,,D6LT,1080,1920,kt64pe,SMALL,0,,
1235162618,DIGITAL,D6,RAIL,2022-10-01 16:21:48,2026-05-11 22:03:35,KT6 4PE,SUBC01001,4051,POINT (51.39233481 -0.30362319),KT,6,4,PE,overbridge,London,UK,Surbiton,3,6,LIVE,,-0.30362319,51.39233481,194,01,Surbiton,D6,D6,0.2604,,,NRD6,57779548,,5123640,,D6LT,1080,1920,kt64pe,SMALL,0,,
1235162640,DIGITAL,D6,RAIL,2022-10-01 16:21:48,2026-05-11 22:03:36,SW8 1SS,VXHC01002,3782,POINT (51.48575697 -0.12272629),SW,8,1,SS,subway,London,UK,Kennington,3,6,LIVE,,-0.12272629,51.48575697,172,01,Vauxhall,D6,D6,0.457,,,NRD6,57779827,,5123640,,D6LT,1080,1920,sw81ss,SMALL,0,,
1235162646,DIGITAL,D6,RAIL,2022-10-01 16:21:49,2026-05-11 22:03:36,SW8 1SS,VXHC01003,3782,POINT (51.48578369 -0.12293014),SW,8,1,SS,subway,London,UK,Kennington,3,6,LIVE,,-0.12293014,51.48578369,185,01,Vauxhall,D6,D6,0.4323,,,NRD6,57779331,,5123640,,D6LT,1080,1920,sw81ss,SMALL,0,,
1235162651,DIGITAL,D6,RAIL,2022-10-01 16:21:47,2026-05-11 22:03:33,SW8 1SS,VXHC01004,3782,POINT (51.48580875 -0.12315544),SW,8,1,SS,subway,London,UK,Kennington,3,6,LIVE,,-0.12315544,51.48580875,201,01,Vauxhall,D6,D6,0.2945,,,NRD6,57778972,,5123640,,D6LT,1080,1920,sw81ss,SMALL,0,,
1235162784,DIGITAL,D6,RAIL,2022-10-01 16:21:46,2026-05-11 22:03:32,SW20 0JY,RPKC02001,3988,POINT (51.40884944 -0.23029436),SW,20,0,JY,subway from Approach Road ticket hall,London,UK,Raynes Park,3,6,LIVE,,-0.23029436,51.40884944,474,01,Raynes Park,D6,D6,0.0507,,,NRD6,57780938,,5123640,,D6LT,1080,1920,sw200jy,SMALL,0,,
1235189008,DIGITAL,D6,RAIL,2022-10-01 16:21:54,2026-05-11 22:03:43,SW19 7NL,WIMCO1005,3985,POINT (51.42105591 -0.2060649),SW,19,7,NL,main concourse,London,UK,Wimbledon,3,6,LIVE,,-0.2060649,51.42105591,336,01,Wimbledon,D6,D6,0.9915,,,NRD6,57778895,,5123640,,D6LT,1080,1920,sw197nl,SMALL,0,,
1235189009,DIGITAL,D6,RAIL,2022-10-01 16:21:54,2026-05-11 22:03:43,SW20 0JY,RPKT01001,3988,POINT (51.40922583 -0.23023673),SW,20,0,JY,ticket hall - Coombe Lane,London,UK,Raynes Park,3,6,LIVE,,-0.23023673,51.40922583,482,01,Raynes Park,D6,D6,0.0381,,,NRD6,57779951,,5123640,,D6LT,1080,1920,sw200jy,SMALL,0,,
1235189527,DIGITAL,D6,RAIL,2022-10-01 16:21:39,2026-05-11 22:03:24,SW18 4SR,EADT01001,3999,POINT (51.44223509 -0.18741625),SW,18,4,SR,TICKET HALL,London,UK,Wandsworth,3,6,LIVE,,-0.18741625,51.44223509,92,01,Earlsfield,D6,D6,0.088,,,NRD6,57779309,,5123640,,D6LT,1080,1920,sw184sr,SMALL,0,,
1235189774,DIGITAL,D6,RAIL,2022-10-01 16:21:39,2026-05-11 22:03:23,KT1 1UJ,KNGP02001,3785,POINT (51.41275887 -0.30121033),KT,1,1,UJ,platform 2 - towards Shepperton/London Waterloo via Richmond,London,UK,Kingston,3,6,LIVE,,-0.30121033,51.41275887,134,01,Kingston,D6,D6,0.3157,,,NRD6,57779730,,5123640,,D6LT,1080,1920,kt11uj,SMALL,0,,
1235189790,DIGITAL,D6,RAIL,2022-10-01 16:21:40,2026-05-11 22:03:25,KT1 1UJ,KNGP03010,3785,POINT (51.41298805 -0.30140077),KT,1,1,UJ,platform 3 - towards London Waterloo via Wimbledon,London,UK,Kingston,3,6,LIVE,,-0.30140077,51.41298805,128,01,Kingston,D6,D6,0.3781,,,NRD6,57779233,,5123640,,D6LT,1080,1920,kt11uj,SMALL,0,,
1235190389,DIGITAL,D6,RAIL,2022-10-01 16:26:46,2026-05-11 22:19:53,SO15 1AL,SNCT02001,4205,POINT (50.90732116 -1.41415498),SO,15,1,AL,ticket hall - port side,South and South-East,UK,Southampton,3,6,LIVE,,-1.41415498,50.90732116,296,01,Southampton Central,D6,D6,0.9492,,,NRD6,57779592,,5123640,,D6LT,1080,1920,so151al,SMALL,0,,
1235191262,DIGITAL,D6,RAIL,2022-10-01 16:26:46,2026-05-11 22:19:53,SO15 1AL,SNCT01001,4205,POINT (50.90784547 -1.41381032),SO,15,1,AL,ticket hall - town side,South and South-East,UK,Southampton,3,6,LIVE,,-1.41381032,50.90784547,234,01,Southampton Central,D6,D6,3.8707,,,NRD6,57781755,,5123640,,D6LT,1080,1920,so151al,SMALL,0,,
1235194824,DIGITAL,D6,RAIL,2022-10-01 16:21:36,2026-05-11 22:03:20,KT3 4PX,NEMC01001,3974,POINT (51.40406854 -0.25606139),KT,3,4,PX,corridor,London,UK,New Malden,3,6,LIVE,,-0.25606139,51.40406854,313,01,New Malden,D6,D6,0.1197,,,NRD6,57780315,,5123640,,D6LT,1080,1920,kt34px,SMALL,0,,
1235194825,DIGITAL,D6,RAIL,2022-10-01 16:21:36,2026-05-11 22:03:20,KT4 7NB,WCPP02001,3973,POINT (51.38129065 -0.24492111),KT,4,7,NB,platform 2 - towards Guildford/Dorking,London,UK,Worcester Park,3,6,LIVE,,-0.24492111,51.38129065,701,01,Worcester Park,D6,D6,0.1124,,,NRD6,57779752,,5123640,,D6LT,1080,1920,kt47nb,SMALL,0,,
1235194826,DIGITAL,D6,RAIL,2022-10-01 16:21:36,2026-05-11 22:03:20,SW8 1SS,VXHT01001,3782,POINT (51.4859574 -0.12323859),SW,8,1,SS,TICKET HALL,London,UK,Kennington,3,6,LIVE,,-0.12323859,51.4859574,206,01,Vauxhall,D6,D6,0.4767,,,NRD6,57779241,,5123640,,D6LT,1080,1920,sw81ss,SMALL,0,,
1235194831,DIGITAL,D6,RAIL,2022-10-01 16:21:55,2026-05-11 22:03:43,SW19 7NL,WIMT01002,3985,POINT (51.42162473 -0.20620659),SW,19,7,NL,TICKET HALL,London,UK,Wimbledon,3,6,LIVE,,-0.20620659,51.42162473,291,01,Wimbledon,D6,D6,0.3367,,,NRD6,57781670,,5123640,,D6LT,1080,1920,sw197nl,SMALL,0,,
1235194834,DIGITAL,D6,RAIL,2022-10-01 16:21:55,2026-05-11 22:03:44,SW19 7NL,WIMCO2001,3985,POINT (51.42160968 -0.20619049),SW,19,7,NL,concourse to Underground,London,UK,Wimbledon,3,6,LIVE,,-0.20619049,51.42160968,292,01,Wimbledon,D6,D6,0.3341,,,NRD6,57780254,,5123640,,D6LT,1080,1920,sw197nl,SMALL,0,,
1235194835,DIGITAL,D6,RAIL,2022-10-01 16:21:55,2026-05-11 22:03:44,SW19 7NL,WIMCO2003,3985,POINT (51.42158593 -0.20624789),SW,19,7,NL,concourse to Underground,London,UK,Wimbledon,3,6,LIVE,,-0.20624789,51.42158593,293,01,Wimbledon,D6,D6,0.6075,,,NRD6,57779640,,5123640,,D6LT,1080,1920,sw197nl,SMALL,0,,
1235194839,DIGITAL,D6,RAIL,2022-10-01 16:21:55,2026-05-11 22:03:44,SW19 7NL,WIMCO2002,3985,POINT (51.42173847 -0.20632192),SW,19,7,NL,concourse to Underground,London,UK,Wimbledon,3,6,LIVE,,-0.20632192,51.42173847,280,01,Wimbledon,D6,D6,0.6844,,,NRD6,57779831,,5123640,,D6LT,1080,1920,sw197nl,SMALL,0,,
1235194845,DIGITAL,D6,RAIL,2022-10-01 16:21:56,2026-05-11 22:03:44,KT12 1NR,WOTT01001,4072,POINT (51.37292404 -0.41466487),KT,12,1,NR,Station Avenue ticket hall,London,UK,Walton On Thames,3,6,LIVE,,-0.41466487,51.37292404,633,01,Walton-on-thames,D6,D6,0.0295,,,NRD6,57784122,,5123640,,D6LT,1080,1920,kt121nr,SMALL,0,,
1235194846,DIGITAL,D6,RAIL,2022-10-01 16:21:56,2026-05-11 22:03:44,GU22 7AE,WOKP05002,3986,POINT (51.31848143 -0.55672257),GU,22,7,AE,platform 5 towards - Portsmouth/Alton/Basingstoke,London,UK,Woking,3,6,LIVE,,-0.55672257,51.31848143,353,01,Woking,D6,D6,0.2795,,,NRD6,57779681,,5123640,,D6LT,1080,1920,gu227ae,SMALL,0,,
1235195335,DIGITAL,D6,RAIL,2022-10-01 16:37:27,2026-05-11 22:12:01,CA2 5AW,CARP03001,11758,POINT (54.89053955 -2.93326),CA,2,5,AW,platform 3 - towards Edinburgh/Glasgow,Border,UK,Carlisle,3,6,LIVE,,-2.93326,54.89053955,634,01,Carlisle,D6,D6,1,,,NRD6,57778646,,5123640,,D6LT,1080,1920,ca25aw,SMALL,0,,
1235195478,DIGITAL,D6,RAIL,2022-10-01 16:21:46,2026-05-11 22:03:33,SW18 4SR,EADT01002,3999,POINT (51.44204713 -0.18756075),SW,18,4,SR,TICKET HALL,London,UK,Wandsworth,3,6,LIVE,,-0.18756075,51.44204713,84,01,Earlsfield,D6,D6,0.2591,,,NRD6,57778957,,5123640,,D6LT,1080,1920,sw184sr,SMALL,0,,
1235195899,DIGITAL,D6,RAIL,2022-10-01 16:21:49,2026-05-11 22:03:37,TW18 4LY,SNST01001,4054,POINT (51.43245639 -0.50310821),TW,18,4,LY,TICKET HALL,London,UK,Staines,3,6,LIVE,,-0.50310821,51.43245639,234,01,Staines,D6,D6,0.0196,,,NRD6,57781536,,5123640,,D6LT,1080,1920,tw184ly,SMALL,0,,
1235196038,DIGITAL,D6,RAIL,2022-10-01 16:26:46,2026-05-11 22:19:53,PO1 1EQ,PMST01001,4207,POINT (50.79835903 -1.09090256),PO,1,1,EQ,TICKET HALL,South and South-East,UK,Portsmouth,3,6,LIVE,,-1.09090256,50.79835903,197,01,Portsmouth & Southsea,D6,D6,0.5321,,,NRD6,57779604,,5123640,,D6LT,1080,1920,po11eq,SMALL,0,,
1235196040,DIGITAL,D6,RAIL,2022-10-01 16:26:46,2026-05-11 22:19:53,PO1 1EQ,PMSC02001,4207,POINT (50.79827983 -1.09076999),PO,1,1,EQ,circulating area at street level (paid side),South and South-East,UK,Portsmouth,3,6,LIVE,,-1.09076999,50.79827983,185,01,Portsmouth & Southsea,D6,D6,0.5712,,,NRD6,57779239,,5123640,,D6LT,1080,1920,po11eq,SMALL,0,,
1235196075,DIGITAL,D6,RAIL,2022-10-01 16:23:26,2026-05-11 22:16:18,PR1 8AP,PSOC01001,4133,POINT (53.75614648 -2.70729408),PR,1,8,AP,main ramp to platforms,North West,UK,Preston,3,6,LIVE,,-2.70729408,53.75614648,371,01,Preston,D6,D6,0.6277,,,NRD6,57780029,,5123640,,D6LT,1080,1920,pr18ap,SMALL,0,,
1235196079,DIGITAL,D6,RAIL,2022-10-01 16:23:26,2026-05-11 22:16:18,PR1 8AP,PSOC01002,4133,POINT (53.7562592 -2.70728662),PR,1,8,AP,main ramp to platforms,North West,UK,Preston,3,6,LIVE,,-2.70728662,53.7562592,382,01,Preston,D6,D6,2.1416,,,NRD6,57780375,,5123640,,D6LT,1080,1920,pr18ap,SMALL,0,,
1235196741,DIGITAL,D6,RAIL,2022-10-01 16:23:26,2026-05-11 22:16:19,CW1 6AR,CEWT01003,4138,POINT (53.08949057 -2.43368857),CW,1,6,AR,ticket hall,North West,UK,Crewe,3,6,LIVE,,-2.43368857,53.08949057,875,01,Crewe,D6,D6,0.476,,,NRD6,57779616,,5123640,,D6LT,1080,1920,cw16ar,SMALL,0,,
1235196742,DIGITAL,D6,RAIL,2022-10-01 16:23:26,2026-05-11 22:16:19,CW1 6AR,CEWC01001,4138,POINT (53.08951485 -2.43326763),CW,1,6,AR,overbridge,North West,UK,Crewe,3,6,LIVE,,-2.43326763,53.08951485,903,01,Crewe,D6,D6,0.7676,,,NRD6,57779587,,5123640,,D6LT,1080,1920,cw16ar,SMALL,0,,
1235196745,DIGITAL,D6,RAIL,2022-10-01 16:23:26,2026-05-11 22:16:19,CW1 6AR,CEWT01001,4138,POINT (53.08948059 -2.43364797),CW,1,6,AR,ticket hall,North West,UK,Crewe,3,6,LIVE,,-2.43364797,53.08948059,877,01,Crewe,D6,D6,0.981,,,NRD6,57779109,,5123640,,D6LT,1080,1920,cw16ar,SMALL,0,,
1235196756,DIGITAL,D6,RAIL,2022-10-01 16:22:38,2026-05-11 22:09:05,ST16 2AA,STAT01003,4073,POINT (52.80371649 -2.12218591),ST,16,2,AA,ticket hall,Midlands,UK,Stafford,3,6,LIVE,,-2.12218591,52.80371649,267,01,Stafford,D6,D6,0.7196,,,NRD6,57779466,,5123640,,D6LT,1080,1920,st162aa,SMALL,0,,
1235196762,DIGITAL,D6,RAIL,2022-10-01 16:22:38,2026-05-11 22:09:05,CV21 3LA,RGBT01001,4075,POINT (52.37886487 -1.25075938),CV,21,3,LA,ticket hall,Midlands,UK,Rugby,3,6,LIVE,,-1.25075938,52.37886487,422,01,Rugby,D6,D6,0.3735,,,NRD6,57778980,,5123640,,D6LT,1080,1920,cv213la,SMALL,0,,
1235196918,DIGITAL,D6,RAIL,2022-10-01 16:26:47,2026-05-11 22:19:53,PO1 3PA,PMHT01001,4213,POINT (50.79720031 -1.10763784),PO,1,3,PA,TICKET HALL,South and South-East,UK,Portsmouth,3,6,LIVE,,-1.10763784,50.79720031,278,01,Portsmouth Harbour,D6,D6,0.4978,,,NRD6,57780801,,5123640,,D6LT,1080,1920,po13pa,SMALL,0,,
1235196933,DIGITAL,D6,RAIL,2022-10-01 16:21:52,2026-05-11 22:03:40,GU14 7NL,FNBP02003,4060,POINT (51.29659694 -0.75546169),GU,14,7,NL,platform 2 - towards Basingstoke/Poole/Portsmouth,South and South-East,UK,Farnborough,3,6,LIVE,,-0.75546169,51.29659694,226,01,Farnborough,D6,D6,1.0465,,,NRD6,57779537,,5123640,,D6LT,1080,1920,gu147nl,SMALL,0,,
1235197456,DIGITAL,D6,RAIL,2022-10-01 16:26:46,2026-05-11 22:19:53,PO9 1PP,HAVP02008,4206,POINT (50.85434021 -0.98141348),PO,9,1,PP,platform 2 - towards Portsmouth,South and South-East,UK,Havant,3,6,LIVE,,-0.98141348,50.85434021,229,01,Havant,D6,D6,1.9823,,,NRD6,57780205,,5123640,,D6LT,1080,1920,po91pp,SMALL,0,,
1235197959,DIGITAL,D6,RAIL,2022-10-01 16:23:26,2026-05-11 22:16:19,WN3 4HU,WGNT01001,4143,POINT (53.54376102 -2.63329102),WN,3,4,HU,ticket hall,North West,UK,Wigan,3,6,LIVE,,-2.63329102,53.54376102,466,01,Wigan Nth Western,D6,D6,0.3286,,,NRD6,57779832,,5123640,,D6LT,1080,1920,wn34hu,SMALL,0,,
1235198276,DIGITAL,LANDSCAPES,RAIL,2022-10-01 16:17:50,2026-05-11 22:29:27,B40 1PJ,BHIT01002,3801,POINT (52.45079327 -1.72538904),B,40,1,PJ,elevated in ticket hall concourse,Midlands,UK,Solihull area,3,6,LIVE,,-1.72538904,52.45079327,2258,01,Birmingham International,DLF,LND,1,,,NRDLF,57778736,,5123640,,DGW 940 X 480,480,940,b401pj,,0,,
1235200045,DIGITAL,D6,RAIL,2022-10-01 16:23:26,2026-05-11 22:16:19,WA1 1LS,WBQT01001,4144,POINT (53.38608865 -2.60285692),WA,1,1,LS,ticket hall,North West,UK,Warrington,3,6,LIVE,,-2.60285692,53.38608865,641,01,Warrington Bank Quay,D6,D6,0.2436,,,NRD6,57780108,,5123640,,D6LT,1080,1920,wa11ls,SMALL,0,,
1235203175,DIGITAL,D6,RAIL,2022-10-01 16:26:47,2026-05-11 22:19:53,BH8 8HX,BMHT01001,895,POINT (50.72705343 -1.86418656),BH,8,8,HX,ticket hall - Asda side,South and South-East,UK,Bournemouth,3,6,LIVE,,-1.86418656,50.72705343,457,01,Bournemouth,D6,D6,0.6121,,,NRD6,57779231,,5123640,,D6LT,1080,1920,bh88hx,SMALL,0,,
1235203225,DIGITAL,D6,RAIL,2022-10-01 16:21:51,2026-05-11 22:03:39,KT2 7AZ,NBTT01001,3991,POINT (51.4124888 -0.28415096),KT,2,7,AZ,ticket hall - Coombe Road,London,UK,Kingston,3,6,LIVE,,-0.28415096,51.4124888,203,01,Norbiton,D6,D6,0.0513,,,NRD6,57780476,,5123640,,D6LT,1080,1920,kt27az,SMALL,0,,
1235203239,DIGITAL,D6,RAIL,2022-10-01 16:21:52,2026-05-11 22:03:40,SW13 0HT,BNSP02006,4062,POINT (51.46700917 -0.24184624),SW,13,0,HT,platform 2 - towards London Waterloo,London,UK,Barnes,3,6,LIVE,,-0.24184624,51.46700917,573,01,Barnes,D6,D6,0.1222,,,NRD6,57778945,,5123640,,D6LT,1080,1920,sw130ht,SMALL,0,,
1235203254,DIGITAL,D6,RAIL,2022-10-01 16:26:47,2026-05-11 22:19:53,RG40 2AP,WKMT01001,4214,POINT (51.41174551 -0.84266682),RG,40,2,AP,TICKET HALL,South and South-East,UK,Wokingham,3,6,LIVE,,-0.84266682,51.41174551,297,01,Wokingham,D6,D6,0.3713,,,NRD6,57779386,,5123640,,D6LT,1080,1920,rg402ap,SMALL,0,,
1235203255,DIGITAL,D6,RAIL,2022-10-01 16:26:46,2026-05-11 22:19:53,PO16 0UT,FRMT01001,4203,POINT (50.85305889 -1.19171178),PO,16,0,UT,TICKET HALL,South and South-East,UK,Fareham,3,6,LIVE,,-1.19171178,50.85305889,616,01,Fareham,D6,D6,0.0429,,,NRD6,57779039,,5123640,,D6LT,1080,1920,po160ut,SMALL,0,,
1235203265,DIGITAL,D6,RAIL,2022-10-01 16:21:54,2026-05-11 22:03:43,GU27 2PE,HSLT01001,4070,POINT (51.08873693 -0.71936248),GU,27,2,PE,TICKET HALL,London,UK,Haslemere,3,6,LIVE,,-0.71936248,51.08873693,446,01,Haslemere,D6,D6,0.0282,,,NRD6,57779184,,5123640,,D6LT,1080,1920,gu272pe,SMALL,0,,
1235203871,DIGITAL,D6,RAIL,2022-10-01 16:21:36,2026-05-11 22:03:20,SW15 1RT,PTYC01002,3766,POINT (51.46119112 -0.21651448),SW,15,1,RT,corridor between platforms,London,UK,Putney,3,6,LIVE,,-0.21651448,51.46119112,401,01,Putney,D6,D6,0.3577,,,NRD6,57780215,,5123640,,D6LT,1080,1920,sw151rt,SMALL,0,,
1235203873,DIGITAL,D6,RAIL,2022-10-01 16:21:36,2026-05-11 22:03:21,SW15 1RT,PTYT01001,3766,POINT (51.4611821 -0.21669122),SW,15,1,RT,TICKET HALL,London,UK,Putney,3,6,LIVE,,-0.21669122,51.4611821,397,01,Putney,D6,D6,0.313,,,NRD6,57781293,,5123640,,D6LT,1080,1920,sw151rt,SMALL,0,,
1235242256,DIGITAL,D6,RAIL,2022-10-01 16:21:41,2026-05-11 22:03:26,SW19 7NL,WIMCO1004,3985,POINT (51.42130632 -0.20632662),SW,19,7,NL,main concourse,London,UK,Wimbledon,3,6,LIVE,,-0.20632662,51.42130632,305,01,Wimbledon,D6,D6,1.3191,,,NRD6,57779333,,5123640,,D6LT,1080,1920,sw197nl,SMALL,0,,
1235242257,DIGITAL,D6,RAIL,2022-10-01 16:21:41,2026-05-11 22:03:26,SW15 1RT,PTYC01003,3766,POINT (51.46118891 -0.21650803),SW,15,1,RT,corridor between platforms,London,UK,Putney,3,6,LIVE,,-0.21650803,51.46118891,401,01,Putney,D6,D6,0.2488,,,NRD6,57779554,,5123640,,D6LT,1080,1920,sw151rt,SMALL,0,,
1235242261,DIGITAL,D6,RAIL,2022-10-01 16:21:43,2026-05-11 22:03:28,SW8 1SS,VXHC01005,3782,POINT (51.48574875 -0.12264241),SW,8,1,SS,subway,London,UK,Kennington,3,6,LIVE,,-0.12264241,51.48574875,166,01,Vauxhall,D6,D6,0.4051,,,NRD6,57778993,,5123640,,D6LT,1080,1920,sw81ss,SMALL,0,,
1235242262,DIGITAL,D6,RAIL,2022-10-01 16:21:43,2026-05-11 22:03:28,SW8 1SS,VXHC01006,3782,POINT (51.48571367 -0.12248416),SW,8,1,SS,subway,London,UK,Kennington,3,6,LIVE,,-0.12248416,51.48571367,156,01,Vauxhall,D6,D6,0.3383,,,NRD6,57779630,,5123640,,D6LT,1080,1920,sw81ss,SMALL,0,,
1235242281,DIGITAL,D6,RAIL,2022-10-01 16:21:42,2026-05-11 22:03:27,TW9 2NA,RMDCO3001,3783,POINT (51.46325373 -0.30129955),TW,9,2,NA,concourse between gateline and platform,London,UK,Richmond (Surrey),3,6,LIVE,,-0.30129955,51.46325373,304,01,Richmond,D6,D6,0.7927,,,NRD6,57779365,,5123640,,D6LT,1080,1920,tw92na,SMALL,0,,
1235242282,DIGITAL,D6,RAIL,2022-10-01 16:21:42,2026-05-11 22:03:27,TW9 2NA,RMDC02003,3783,POINT (51.46340078 -0.30135319),TW,9,2,NA,lower concourse,London,UK,Richmond (Surrey),3,6,LIVE,,-0.30135319,51.46340078,291,01,Richmond,D6,D6,0.3257,,,NRD6,57778988,,5123640,,D6LT,1080,1920,tw92na,SMALL,0,,
1235242289,DIGITAL,D6,RAIL,2022-10-01 16:21:45,2026-05-11 22:03:30,SW15 1RT,PTYC01001,3766,POINT (51.46104428 -0.21658249),SW,15,1,RT,corridor between platforms,London,UK,Putney,3,6,LIVE,,-0.21658249,51.46104428,384,01,Putney,D6,D6,0.2293,,,NRD6,57779418,,5123640,,D6LT,1080,1920,sw151rt,SMALL,0,,
1235242758,DIGITAL,D6,RAIL,2022-10-01 16:23:26,2026-05-11 22:16:19,SK3 9HZ,SPTC03001,4136,POINT (53.40575526 -2.16275315),SK,3,9,HZ,subway,North West,UK,Stockport,3,6,LIVE,,-2.16275315,53.40575526,243,01,Stockport,D6,D6,1.0069,,,NRD6,57779649,,5123640,,D6LT,1080,1920,sk30ab,SMALL,0,,
1235256891,DIGITAL,D6,RAIL,2022-10-01 16:21:42,2026-05-11 22:03:28,GU22 7AE,WOKT01001,3986,POINT (51.31870264 -0.55674464),GU,22,7,AE,ticket hall - main,London,UK,Woking,3,6,LIVE,,-0.55674464,51.31870264,355,01,Woking,D6,D6,0.748,,,NRD6,57779625,,5123640,,D6LT,1080,1920,gu227ae,SMALL,0,,
1235256892,DIGITAL,D6,RAIL,2022-10-01 16:21:42,2026-05-11 22:03:28,GU22 7AE,WOKP05001,3986,POINT (51.31872826 -0.556028),GU,22,7,AE,platform 5 towards - Portsmouth/Alton/Basingstoke,London,UK,Woking,3,6,LIVE,,-0.556028,51.31872826,305,01,Woking,D6,D6,0.098,,,NRD6,57779491,,5123640,,D6LT,1080,1920,gu227ae,SMALL,0,,
1235257105,DIGITAL,D6,RAIL,2022-10-01 16:21:37,2026-05-11 22:03:22,GU22 7AE,WOKP01002,3986,POINT (51.31868325 -0.55697047),GU,22,7,AE,platform 1 - towards London Waterloo,London,UK,Woking,3,6,LIVE,,-0.55697047,51.31868325,370,01,Woking,D6,D6,0.391,,,NRD6,57779380,,5123640,,D6LT,1080,1920,gu227ae,SMALL,0,,
1235257115,DIGITAL,D6,RAIL,2022-10-01 16:21:35,2026-05-11 22:03:19,KT13 8UD,WYBC01001,3965,POINT (51.36149094 -0.45745237),KT,13,8,UD,overbridge,London,UK,Weybridge,3,6,LIVE,,-0.45745237,51.36149094,552,01,Weybridge,D6,D6,0.0656,,,NRD6,57779405,,5123640,,D6LT,1080,1920,kt138ud,SMALL,0,,
1235257154,DIGITAL,D6,RAIL,2022-10-01 16:21:41,2026-05-11 22:03:26,TW9 2NA,RMDC01008,3783,POINT (51.46289963 -0.30177724),TW,9,2,NA,overbridge,London,UK,Richmond (Surrey),3,6,LIVE,,-0.30177724,51.46289963,354,01,Richmond,D6,D6,0.4843,,,NRD6,57779182,,5123640,,D6LT,1080,1920,tw92na,SMALL,0,,
1235257155,DIGITAL,D6,RAIL,2022-10-01 16:21:38,2026-05-11 22:03:23,TW9 2NA,RMDC01007,3783,POINT (51.46289964 -0.30172992),TW,9,2,NA,overbridge,London,UK,Richmond (Surrey),3,6,LIVE,,-0.30172992,51.46289964,353,01,Richmond,D6,D6,0.633,,,NRD6,57779100,,5123640,,D6LT,1080,1920,tw92na,SMALL,0,,
1235257223,DIGITAL,D6,RAIL,2022-10-01 16:21:37,2026-05-11 22:03:22,SW19 7NL,WIMCO1006,3985,POINT (51.42129744 -0.20658503),SW,19,7,NL,main concourse,London,UK,Wimbledon,3,6,LIVE,,-0.20658503,51.42129744,291,01,Wimbledon,D6,D6,0.8898,,,NRD6,57780248,,5123640,,D6LT,1080,1920,sw197nl,SMALL,0,,
1235257224,DIGITAL,D6,RAIL,2022-10-01 16:21:37,2026-05-11 22:03:22,SW19 7NL,WIMCO1003,3985,POINT (51.42132166 -0.20634378),SW,19,7,NL,main concourse,London,UK,Wimbledon,3,6,LIVE,,-0.20634378,51.42132166,303,01,Wimbledon,D6,D6,1.2909,,,NRD6,57778863,,5123640,,D6LT,1080,1920,sw197nl,SMALL,0,,
1235318811,DIGITAL,DLF,ROADSIDE,2022-10-01 16:22:50,2026-05-11 22:11:41,WC1V 6DW,6013,4109,POINT (51.51797663 -0.11912386),WC,1V,6,DW,"The Holborn Eye, London Wc1 And Wc2",London,UK,London WC1 and WC2,2,6,LIVE,,-0.11912386,51.51797663,254,01,,ALIST,DLF,0.5237,,,RS1235318811,57779937,,5123637,,UNILED,,,wc1v6dw,EXTRA_LARGE,1,,
1235318812,DIGITAL,DLF,ROADSIDE,2022-10-01 16:22:50,2026-05-11 22:11:41,NW1 2BU,6015,3968,POINT (51.52500955 -0.13847541),NW,1,2,BU,"(TFL) Euston Underpass (EB), Marylebone (Eastbound)",London,UK,Marylebone,2,6,LIVE,,-0.13847541,51.52500955,265,01,,ALIST,DLF,1.1949,,,RS1235318812,372721117,,,,MANUAL,,,nw12bu,EXTRA_LARGE,1,,
1235318813,DIGITAL,DLF,ROADSIDE,2022-10-01 16:22:50,2026-05-11 22:11:41,NW1 2BU,6015,3968,POINT (51.5252269 -0.1377294),NW,1,2,BU,"(TFL) Euston Underpass (WB), Marylebone (Westbound)",London,UK,Marylebone,2,6,LIVE,,-0.1377294,51.5252269,241,02,,ALIST,DLF,1.1182,,,RS1235318813,372721120,,,,MANUAL,,,nw12bu,EXTRA_LARGE,1,,
1235318814,DIGITAL,DLF,ROADSIDE,2022-10-01 16:22:50,2026-05-11 22:11:40,W3 0TE,5007,4083,POINT (51.52669054 -0.2756183),W,3,0,TE,"The Spire - 600 - 610 Western Ave, Acton (Westbound)",London,UK,Acton,2,6,LIVE,,-0.2756183,51.52669054,706,02,,DM6,DLF,1.1393,,,RSDM6L,57779788,,5123637,,DLF V10 - 600 X 880,880,600,w30te,,0,,
1235318832,DIGITAL,DLF,ROADSIDE,2022-10-01 16:22:49,2026-05-11 22:11:40,W3 0TE,5007,4083,POINT (51.52667806 -0.27569597),W,3,0,TE,"The Spire - 600 - 610 Western Ave, Acton (Eastbound)",London,UK,Acton,2,6,LIVE,,-0.27569597,51.52667806,701,01,,DM6,DLF,0.6602,,,RSDM6L,57780805,,5123637,,DLF V10 - 600 X 880,880,600,w30te,,0,,
1235318860,DIGITAL,DLF,ROADSIDE,2022-10-01 16:22:51,2026-05-12 05:00:30,TW8 9AT,6040,4116,POINT (51.49216551 -0.28935315),TW,8,9,AT,"M4 Beacon, 1053 Great West Rd, Brentford (Eastbound)",London,UK,Brentford,2,6,LIVE,,-0.28935315,51.49216551,267,02,,DM6,DLF,1.1729,,,RS1235318860,372561118,372561121,,,MANUAL,,,tw89lx,,0,,
1235318861,DIGITAL,DLF,ROADSIDE,2022-10-01 16:22:51,2026-05-12 05:00:30,TW8 9AT,6040,4116,POINT (51.49217033 -0.28934202),TW,8,9,AT,"M4 Beacon, 1053 Great West Rd, Brentford (Westbound)",London,UK,Brentford,2,6,LIVE,,-0.28934202,51.49217033,266,01,,DM6,DLF,1.1,,,RS1235318861,372561118,372561127,,,MANUAL,,,tw80ae,,0,,
1235459321,DIGITAL,DLF,ROADSIDE,2022-10-01 16:22:51,2026-05-12 05:00:30,TW8 9DW,6027,4119,POINT (51.48887834 -0.31386382),TW,8,9,DW,"M4 The Mille, 1000 Great West Rd, Brentford",London,UK,Brentford,2,6,LIVE,,-0.31386382,51.48887834,109,01,,DM6P,DLF,1,,,RS1235459321,57779778,,5123637,,DM6 V6 - 312 X 469,469,312,tw89dw,,0,,
1235459323,DIGITAL,DLF,ROADSIDE,2022-10-01 16:22:51,2026-05-11 22:11:41,W3 0SL,0159,4115,POINT (51.52691813 -0.28381073),W,3,0,SL,"Lookers Tower A40 Western Ave/Dukes Rd, Acton (Eastbound)",London,UK,Acton,2,6,LIVE,,-0.28381073,51.52691813,494,02,,DM6,DLF,0.7534,,,RSDM6L,57779946,,5123637,,DM6 V2 - 480 X 720,720,480,w30sl,,0,,
1235461764,DIGITAL,48_SHEET,ROADSIDE,2022-10-23 20:29:43,2026-05-12 05:00:30,B4 6HH,9039,16026,POINT (52.48623038 -1.8964782),B,4,6,HH,"St Chads Queensway, Lancaster St, Birmingham",Midlands,UK,Birmingham,2,6,LIVE,,-1.8964782,52.48623038,250,00,,D48,048,2.6843,,,RSD48B2,173413216,173413219,5123637,,RS - ND48 576 X 288,288,576,b46hh,LARGE,0,,PREMIUM
1235461765,DIGITAL,48_SHEET,ROADSIDE,2022-10-23 20:33:17,2026-05-12 05:00:30,L6 1AL,9040,16511,POINT (53.41161469 -2.96752251),L,6,1,AL,"Islington/Erskine St, Liverpool",North West,UK,Liverpool,2,6,LIVE,,-2.96752251,53.41161469,525,00,,D48,048,2.0504,,,RSD48B2,173413220,173413223,5123637,,RS - ND48 576 X 288,288,576,l61al,LARGE,0,,PREMIUM
1235461771,DIGITAL,48_SHEET,ROADSIDE,2022-10-23 19:07:09,2026-05-12 05:00:30,EH6 7LA,9041,15238,POINT (55.97248436 -3.15504681),EH,6,7,LA,"114A Salamander St, Edinburgh",Central Scotland,UK,Edinburgh,2,6,LIVE,,-3.15504681,55.97248436,253,00,,D48,048,1.0688,,,RSD48B2,173413224,173413227,5123637,,RS - ND48 576 X 288,288,576,eh67la,LARGE,0,,PREMIUM
1235461904,DIGITAL,48_SHEET,ROADSIDE,2022-10-23 20:29:38,2026-05-12 05:00:30,B5 7DP,9043,15965,POINT (52.46475499 -1.89271154),B,5,7,DP,"Belgrave Middleway/Longmore St, Birmingham (Westbound)",Midlands,UK,Birmingham,2,6,LIVE,,-1.89271154,52.46475499,56,00,,D48,048,2.081,,,RSD48B2,173413228,173413231,5123637,,RS - ND48 576 X 288,288,576,b57dp,LARGE,0,,PREMIUM
1235461907,DIGITAL,48_SHEET,ROADSIDE,2022-10-23 20:38:38,2026-05-12 05:00:30,LS10 1PF,9045,1423,POINT (53.78572404 -1.53272197),LS,10,1,PF,"Hunslet Rd/Kitson Rd, Leeds",Yorkshire,UK,Leeds,2,6,LIVE,,-1.53272197,53.78572404,255,00,,D48,048,1.312,,,RSD48B2,173413232,173413235,5123637,,RS - ND48 576 X 288,288,576,ls101pf,LARGE,0,,PREMIUM
1235461964,DIGITAL,48_SHEET,ROADSIDE,2022-10-23 20:26:05,2026-05-12 05:00:30,N13 6BJ,9050,15647,POINT (51.61224367 -0.10801347),N,13,6,BJ,"376-378 North Circular Rd, Palmers Green",London,UK,Palmers Green,2,6,LIVE,,-0.10801347,51.61224367,154,00,,D48,048,0.9323,,,RSD48B2,57781909,,5123637,,D48 V9 - 720 X 384,384,720,n136bj,LARGE,0,,PREMIUM
1235461965,DIGITAL,48_SHEET,ROADSIDE,2022-10-23 20:26:04,2026-05-12 05:00:30,SE7 7HX,9051,15645,POINT (51.4828752 0.02090998),SE,7,7,HX,"Blackwall Tnl S App/Charlton Carpound, Charlton (Southbound)",London,UK,Charlton,2,6,LIVE,,0.02090998,51.4828752,318,00,,D48,048,1.6251,,,RSD48B3,57778982,,5123637,,RS - ND48 576 X 288,288,576,se77hx,LARGE,0,,PLATINUM
1235461966,DIGITAL,48_SHEET,ROADSIDE,2022-10-23 20:26:04,2026-05-12 05:00:30,SE7 7HX,9052,15645,POINT (51.48286511 0.02091015),SE,7,7,HX,"Blackwall Tnl S App/Charlton Carpound, Charlton (Northbound)",London,UK,Charlton,2,6,LIVE,,0.02091015,51.48286511,317,00,,D48,048,1.4462,,,RSD48B3,57788746,,5123637,,RS - ND48 576 X 288,288,576,se77hx,LARGE,0,,PLATINUM
1235461973,DIGITAL,96_SHEET,ROADSIDE,2022-10-23 20:35:35,2026-05-11 22:30:13,SE1 5EW,9059,11751,POINT (51.484208 -0.066344),SE,1,5,EW,"536-573 Old Kent Rd/St James Rd, Walworth",London,UK,Walworth,2,6,LIVE,,-0.066344,51.484208,269,00,,D96,096,1.0129,,,RSD96,57778692,,5123637,,RS - D96 1024 X 256,256,1024,se15ew,EXTRA_LARGE,0,,
1235461978,DIGITAL,48_SHEET,ROADSIDE,2022-10-23 20:33:15,2026-05-11 22:22:18,M4 4BR,9064,16500,POINT (53.48711369 -2.23495871),M,4,4,BR,"Rochdale Rd/Angel St, Manchester",North West,UK,Manchester,2,6,LIVE,,-2.23495871,53.48711369,276,00,,D48,048,1.4221,,,RSD48,57779764,,5123637,,D48 V9 - 720 X 384,384,720,m44br,LARGE,0,,
1235461979,DIGITAL,48_SHEET,ROADSIDE,2022-10-23 20:33:15,2026-05-11 22:22:18,L3 8JR,9065,1442,POINT (53.41037581 -2.97714042),L,3,8,JR,"Islington 20/26, Liverpool (Eastbound)",North West,UK,Liverpool,2,6,LIVE,,-2.97714042,53.41037581,477,00,,D48,048,0.9025,,,RSD48,57780590,,5123637,,RS - ND48 576 X 288,288,576,l38jr,LARGE,0,,
1235461982,DIGITAL,48_SHEET,ROADSIDE,2022-10-23 20:38:48,2026-05-12 05:00:30,S9 2SR,9068,17318,POINT (53.40517407 -1.42720687),S,9,2,SR,"720 Brightside Ln/Hawke St, Sheffield",Yorkshire,UK,Sheffield,2,6,LIVE,,-1.42720687,53.40517407,675,00,,D48,048,1.7857,,,RSD48B2,57780284,,5123637,,RS - ND48 576 X 288,288,576,s92sr,LARGE,0,,PREMIUM
1235461983,DIGITAL,48_SHEET,ROADSIDE,2022-10-23 20:29:42,2026-05-12 05:00:30,B5 7DP,9069,15965,POINT (52.46520389 -1.89295085),B,5,7,DP,"Belgrave Middleway/St Luke's Rd, Birmingham (Eastbound)",Midlands,UK,Birmingham,2,6,LIVE,,-1.89295085,52.46520389,105,00,,D48,048,2.4501,,,RSD48B2,57779713,,5123637,,RS - ND48 576 X 288,288,576,b57dp,LARGE,0,,PREMIUM
1235461985,DIGITAL,96_SHEET,ROADSIDE,2022-10-01 16:04:55,2026-05-11 22:04:31,B12 0YA,9071,39,POINT (52.4638621 -1.8869715),B,12,0,YA,"Haden Circus/Belgrave Middleway, Birmingham",Midlands,UK,Birmingham,2,6,LIVE,,-1.8869715,52.4638621,207,00,,D96,096,1.2642,,,RSD96,57782534,,5123637,,RS - D96 1024 X 256,256,1024,b120ya,EXTRA_LARGE,0,,
1235461986,DIGITAL,48_SHEET,ROADSIDE,2022-10-23 20:38:48,2026-05-11 22:32:58,BD1 3SF,9072,12735,POINT (53.79708347 -1.76056933),BD,1,3,SF,"154-158 Westgate, Bradford",Yorkshire,UK,Bradford,2,6,LIVE,,-1.76056933,53.79708347,420,00,,D48,048,1.1002,,,RSD48,57786333,,5123637,,RS - ND48 576 X 288,288,576,bd13sf,LARGE,0,,
1235461988,DIGITAL,48_SHEET,ROADSIDE,2022-10-23 19:06:57,2026-05-12 05:00:30,EH11 4GA,9074,15173,POINT (55.92047499 -3.30214423),EH,11,4,GA,"Calder Rd/Cutlins Rd, Edinburgh",Central Scotland,UK,Edinburgh,2,6,LIVE,,-3.30214423,55.92047499,473,00,,D48,048,1.4254,,,RSD48B2,57785510,,5123637,,RS - ND48 576 X 288,288,576,eh114ga,LARGE,0,,PREMIUM
1235462225,DIGITAL,48_SHEET,ROADSIDE,2022-10-23 20:33:33,2026-05-12 05:00:30,M3 4JU,9077,16649,POINT (53.47424977 -2.26051003),M,3,4,JU,"A57 Egerton St/Potato Wharf, Manchester",North West,UK,Manchester,2,6,LIVE,,-2.26051003,53.47424977,409,00,,D48,048,1.8812,,,RSD48B2,57780583,,5123637,,RS - ND48 576 X 288,288,576,m34ju,LARGE,0,,PREMIUM
1235462226,DIGITAL,48_SHEET,ROADSIDE,2022-10-23 19:03:41,2026-05-12 05:00:30,NE1 2NS,9078,14924,POINT (54.97499396 -1.59560707),NE,1,2,NS,"6-15 Byker Bridge, Newcastle Upon Tyne",North East,UK,Newcastle Upon Tyne,2,6,LIVE,,-1.59560707,54.97499396,386,00,,D48,048,0.6341,,,RSD48B2,57787410,,5123637,,RS - ND48 576 X 288,288,576,ne12ns,LARGE,0,,PREMIUM
1235462260,DIGITAL,48_SHEET,ROADSIDE,2022-10-23 19:03:41,2026-05-12 05:00:30,NE15 6XA,9079,1442,POINT (54.96886039 -1.69128691),NE,15,6,XA,"Scotswood Rd/Old Scotswood R'way Bridge, Newcastle Upon Tyne",North East,UK,Newcastle Upon Tyne,2,6,LIVE,,-1.69128691,54.96886039,526,00,,D48,048,1.5017,,,RSD48B2,57780507,,5123637,,RS - ND48 576 X 288,288,576,ne156xa,LARGE,0,,PREMIUM
1235462312,DIGITAL,48_SHEET,ROADSIDE,2022-10-23 20:38:57,2026-05-12 05:00:30,LS11 5DQ,9106,17393,POINT (53.78928128 -1.54535527),LS,11,5,DQ,"Hurley House, Dewsbury Rd, Leeds",Yorkshire,UK,Leeds,2,6,LIVE,,-1.54535527,53.78928128,608,00,,D48,048,1.3817,,,RSD48B2,57781224,,5123637,,RS - ND48 576 X 288,288,576,ls115dq,LARGE,0,,PREMIUM
1235462313,DIGITAL,48_SHEET,ROADSIDE,2022-10-23 20:26:47,2026-05-12 05:00:30,SW18 1SL,9099,15888,POINT (51.46016184 -0.19117071),SW,18,1,SL,"Delta Business Park, Swandon Way, Wandsworth",London,UK,Wandsworth,2,6,LIVE,,-0.19117071,51.46016184,228,00,,D48,048,0.692,,,RSD48B2,57779806,,5123637,,RS - ND48 576 X 288,288,576,sw181sl,LARGE,0,,PREMIUM
1235462328,DIGITAL,48_SHEET,ROADSIDE,2022-10-23 20:26:49,2026-05-12 05:00:30,CR0 4NA,9139,15901,POINT (51.36794201 -0.11597746),CR,0,4,NA,"142-144 Epsom Rd, Croydon",London,UK,Croydon,2,6,LIVE,,-0.11597746,51.36794201,324,00,,D48,048,0.8983,,,RSD48B2,57778830,,5123637,,D48 V9 - 720 X 384,384,720,cr04na,LARGE,0,,PREMIUM
1235462329,DIGITAL,48_SHEET,ROADSIDE,2022-10-23 20:26:49,2026-05-12 05:00:30,NW6 7HY,9140,6372,POINT (51.54122133 -0.19728416),NW,6,7,HY,"177 Kilburn High Rd, Willesden",London,UK,Willesden,2,6,LIVE,,-0.19728416,51.54122133,57,00,,D48,048,0.4639,,,RSD48B2,57780975,,5123637,,RS - ND48 576 X 288,288,576,nw67hy,LARGE,0,,PREMIUM
1235462334,DIGITAL,48_SHEET,ROADSIDE,2022-10-23 20:33:50,2026-05-11 22:22:37,L5 8XW,9113,16751,POINT (53.42023787 -2.98145574),L,5,8,XW,"Adj 286 Scotland Rd, Liverpool (Northbound)",North West,UK,Liverpool,2,6,LIVE,,-2.98145574,53.42023787,279,00,,D48,048,0.8779,,,RSD48,57788218,,5123637,,RS - ND48 576 X 288,288,576,l58xw,LARGE,0,,
1235462335,DIGITAL,48_SHEET,ROADSIDE,2022-10-23 19:07:08,2026-05-12 05:00:30,G5 0AN,9100,15077,POINT (55.84034367 -4.22796336),G,5,0,AN,"Clyde Gateway Rutherglen Bridge, Glasgow South (Northbound)",Central Scotland,UK,Glasgow South,2,6,LIVE,,-4.22796336,55.84034367,593,00,,D48,048,0.3422,,,RSD48B2,57782834,,5123637,,RS - ND48 576 X 288,288,576,g50an,LARGE,0,,PREMIUM
1235462352,DIGITAL,48_SHEET,ROADSIDE,2022-10-23 19:06:45,2026-05-12 05:00:30,G5 0AN,9184,15077,POINT (55.84034381 -4.22795999),G,5,0,AN,"Clyde Gateway Rutherglen Bridge, Glasgow South (Southbound)",Central Scotland,UK,Glasgow South,2,6,LIVE,,-4.22795999,55.84034381,593,00,,D48,048,0.1926,,,RSD48B1,57787598,,5123637,,RS - ND48 576 X 288,288,576,g50an,LARGE,0,,CORE
1235462357,DIGITAL,48_SHEET,ROADSIDE,2022-10-23 20:33:01,2026-05-12 05:00:30,L6 1AE,9152,10311,POINT (53.4143197 -2.96152023),L,6,1,AE,"16 West Derby Rd, Liverpool (Westbound)",North West,UK,Liverpool,2,6,LIVE,,-2.96152023,53.4143197,139,00,,D48,048,0.4061,,,RSD48B1,57780432,,5123637,,D48 V9 - 720 X 384,384,720,l61ae,LARGE,0,,CORE
1235462359,DIGITAL,48_SHEET,ROADSIDE,2022-10-23 20:38:32,2026-05-12 05:00:30,S6 2GB,9154,17183,POINT (53.40241381 -1.4921452),S,6,2,GB,"442 Penistone Rd, Sheffield",Yorkshire,UK,Sheffield,2,6,LIVE,,-1.4921452,53.40241381,493,00,,D48,048,0.9525,,,RSD48B2,57780632,,5123637,,RS - ND48 576 X 288,288,576,s62gb,LARGE,0,,PREMIUM
1235462360,DIGITAL,48_SHEET,ROADSIDE,2022-10-23 19:03:43,2026-05-12 05:00:30,SR4 6UA,9155,13620,POINT (54.91097775 -1.40565683),SR,4,6,UA,"Pallion New Rd/Queen Alexandra Bridge, Sunderland",North East,UK,Sunderland,2,6,LIVE,,-1.40565683,54.91097775,231,00,,D48,048,1.3498,,,RSD48B2,57779821,,5123637,,RS - ND48 576 X 288,288,576,sr46ua,LARGE,0,,PREMIUM
1235462365,DIGITAL,96_SHEET,ROADSIDE,2022-10-01 16:07:20,2026-05-11 22:18:40,LS11 9BH,9181,1442,POINT (53.78665991 -1.54816034),LS,11,9,BH,"Meadow Rd/Jack Ln, M621 Junction, Leeds (Northbound)",Yorkshire,UK,Leeds,2,6,LIVE,,-1.54816034,53.78665991,265,00,,D96,096,1.1054,,,RSD96,57779089,,5123637,,RS - D96 1024 X 256,256,1024,ls119bh,EXTRA_LARGE,0,,
1235462367,DIGITAL,48_SHEET,ROADSIDE,2022-10-23 20:25:49,2026-05-12 05:00:30,SE1 5EW,9187,15531,POINT (51.4842698 -0.06646511),SE,1,5,EW,"536-573 Old Kent Rd/St James Rd, Walworth (Eastbound)",London,UK,Walworth,2,6,LIVE,,-0.06646511,51.4842698,261,00,,D48,048,1.6363,,,RSD48B3,57781388,,5123637,,RS - ND48 576 X 288,288,576,se15ew,LARGE,0,,PLATINUM
1235462374,DIGITAL,48_SHEET,ROADSIDE,2022-10-23 20:25:48,2026-05-12 05:00:30,SE16 4NZ,9194,6430,POINT (51.49875139 -0.06073054),SE,16,4,NZ,"Jamaica Rd/1-5 West Ln, Rotherhithe",London,UK,Rotherhithe,2,6,LIVE,,-0.06073054,51.49875139,232,00,,D48,048,1.0533,,,RSD48B3,57779870,,5123637,,RS - ND48 576 X 288,288,576,se164nz,LARGE,0,,PLATINUM
1235462377,DIGITAL,48_SHEET,ROADSIDE,2022-10-23 19:12:33,2026-05-12 05:00:30,PO1 4AX,9116,15267,POINT (50.8034754 -1.08875468),PO,1,4,AX,"Market Way/Frederick St, Portsmouth",South and South-East,UK,Portsmouth,2,6,LIVE,,-1.08875468,50.8034754,331,00,,D48,048,1.3394,,,RSD48B3,57779516,,5123637,,RS - ND48 576 X 288,288,576,po14ax,LARGE,0,,PLATINUM
1235462389,DIGITAL,48_SHEET,ROADSIDE,2022-10-23 20:25:42,2026-05-12 05:00:30,E1W 2BX,9221,7625,POINT (51.50935844 -0.06032585),E,1W,2,BX,"The Old Rose, 128 The Highway, Whitechapel",London,UK,Whitechapel,2,6,LIVE,,-0.06032585,51.50935844,114,00,,D48,048,0.8933,,,RSD48B3,57781335,,5123637,,RS - ND48 576 X 288,288,576,e1w2bx,LARGE,0,,PLATINUM
1235462528,DIGITAL,48_SHEET,ROADSIDE,2022-10-23 20:26:52,2026-05-12 05:00:30,NW9 7DN,9109,5139,POINT (51.58072273 -0.24365341),NW,9,7,DN,"Edgware Rd/The Hyde, Hendon",London,UK,Hendon,2,6,LIVE,,-0.24365341,51.58072273,254,00,,D48,048,0.7127,,,RSD48B2,57782812,,5123637,,RS - ND48 576 X 288,288,576,nw97dn,LARGE,0,,PREMIUM
1235462634,DIGITAL,48_SHEET,ROADSIDE,2022-10-23 19:07:08,2026-05-12 05:00:30,G4 0SN,9120,4173,POINT (55.8691001 -4.2601691),G,4,0,SN,"Garscube Rd, Adj 38 New City Rd, Glasgow North",Central Scotland,UK,Glasgow North,2,6,LIVE,,-4.2601691,55.8691001,206,00,,D48,048,2.1717,,,RSD48B3,57780401,,5123637,,RS - ND48 576 X 288,288,576,g40sn,LARGE,0,,PLATINUM
1235462650,DIGITAL,96_SHEET,ROADSIDE,2022-10-23 20:35:40,2026-05-11 22:30:16,SW8 2TJ,9238,16802,POINT (51.48151286 -0.12473117),SW,8,2,TJ,"South Lambeth Rd/Wyvil Rd, Kennington",London,UK,Kennington,2,6,LIVE,,-0.12473117,51.48151286,0,00,,D96,096,0.311,,,RSD96,57781291,,5123637,,RS - D96 1024 X 256,256,1024,sw82tj,EXTRA_LARGE,0,,
1235462651,DIGITAL,96_SHEET,ROADSIDE,2022-10-23 19:16:07,2026-05-11 22:09:08,CF5 1BH,9239,2219,POINT (51.48531737 -3.22904741),CF,5,1,BH,"Western Avenue/Cowbridge Rd West, Cardiff",Wales,UK,Cardiff,2,6,LIVE,,-3.22904741,51.48531737,280,00,,D96,096,0.7837,,,RSD96,57781471,,5123637,,RS - D96 1024 X 256,256,1024,cf51bh,EXTRA_LARGE,0,,
1235462672,DIGITAL,48_SHEET,ROADSIDE,2022-10-23 20:29:49,2026-05-11 22:17:12,NG1 5ND,9107,9501,POINT (52.95586676 -1.15228722),NG,1,5,ND,"Theatre Royal, Burton St/Goldsmith St, Nottingham",Midlands,UK,Nottingham,2,6,LIVE,,-1.15228722,52.95586676,383,00,,D48,048,0.2082,,,RSD48,57779116,,5123637,,RS - ND48 576 X 288,288,576,ng15nd,LARGE,0,,
1235462675,DIGITAL,48_SHEET,ROADSIDE,2022-10-23 20:38:57,2026-05-12 05:00:30,LS7 3AP,9257,17392,POINT (53.80937336 -1.53479644),LS,7,3,AP,"8-10 Chapeltown Rd, Leeds",Yorkshire,UK,Leeds,2,6,LIVE,,-1.53479644,53.80937336,95,00,,D48,048,1.6173,,,RSD48B2,57781454,,5123637,,RS - ND48 576 X 288,288,576,ls73ap,LARGE,0,,PREMIUM
1235462694,DIGITAL,96_SHEET,ROADSIDE,2022-10-23 19:01:35,2026-05-11 22:04:33,B6 4BA,9276,14608,POINT (52.4928397 -1.8876918),B,6,4,BA,"Dartmouth Circus/Ashton Rd, Birmingham",Midlands,UK,Birmingham,2,6,LIVE,,-1.8876918,52.4928397,177,00,,D96P,096,1,,,RSD96P,57780885,,5123637,,RS - D96 1024 X 256,256,1024,b64ba,EXTRA_LARGE,1,,
1235465718,DIGITAL,48_SHEET,ROADSIDE,2022-10-23 20:26:07,2026-05-12 05:00:30,RM6 4HX,0216,15665,POINT (51.56803372 0.11779764),RM,6,4,HX,"Adj 876 High Rd, Chadwell Heath",London,UK,Chadwell Heath,2,6,LIVE,,0.11779764,51.56803372,209,02,,D48,048,0.5135,,,RSD48B2,57779245,,5123637,,D48 V6 - 600 X 280,280,600,rm64hx,LARGE,0,,PREMIUM
1235465726,DIGITAL,96_SHEET,ROADSIDE,2022-10-01 16:22:50,2026-05-11 22:30:13,E3 2SD,6032,4103,POINT (51.53358331 -0.02209005),E,3,2,SD,"(TFL) A12 East Cross Route Underpass/Wick Ln, Bow",London,UK,Bow,2,6,LIVE,,-0.02209005,51.53358331,442,01,,D96P,096,0.5717,,,RSD96PL,57779001,,5123637,,D96 V6 - 1216 X 288,288,1216,e32sd,EXTRA_LARGE,1,,
1235465732,DIGITAL,96_SHEET,ROADSIDE,2022-10-01 16:22:50,2026-05-11 22:30:16,CR0 4NY,6037,4107,POINT (51.36525991 -0.11802458),CR,0,4,NY,"Purley Way Fiveways/Stafford Rd, Croydon",London,UK,Croydon,2,6,LIVE,,-0.11802458,51.36525991,294,01,,D96P,096,0.8481,,,RSD96PL,57780420,,5123637,,DLF V5 - 1200 X 336,336,1200,cr04ny,EXTRA_LARGE,1,,
1235465747,DIGITAL,DLF,ROADSIDE,2022-10-01 16:22:51,2026-05-11 22:11:41,NW3 5EP,0197,4121,POINT (51.54540309 -0.17705773),NW,3,5,EP,"13 New College Parade, Finchley Rd, Hampstead",London,UK,Hampstead,2,6,LIVE,,-0.17705773,51.54540309,51,01,,DM6,DLF,0.4389,,,RSDM6L,57780306,,5123637,,DM6 V2 - 480 X 720,720,480,nw35ep,,0,,
1235465749,DIGITAL,DLF,ROADSIDE,2022-10-01 16:22:51,2026-05-11 22:11:41,E14 8JA,3022,4123,POINT (51.5116995 -0.02790111),E,14,8,JA,"Canary Wharf Horizon, Poplar",London,UK,Poplar,2,6,LIVE,,-0.02790111,51.5116995,170,01,,ALIST,DLF,0.8947,,,RS1235465749,372721128,,,,MANUAL,,,e148ja,EXTRA_LARGE,1,,
1235465750,DIGITAL,DLF,ROADSIDE,2022-10-01 16:22:48,2026-05-11 22:11:40,SW15 3PG,6046,4081,POINT (51.43894993 -0.24902382),SW,15,3,PG,"A3 Richmond Park, Roehampton Vale/Stag Ln, Roehampton",London,UK,Roehampton,2,6,LIVE,,-0.24902382,51.43894993,417,01,,DM6,DLF,0.7886,,,RSDM6L,57785709,,5123637,,DM6 V2 - 480 X 720,720,480,sw153pg,,0,,
1235465755,DIGITAL,DLF,ROADSIDE,2022-10-01 16:22:49,2026-05-11 22:11:40,SW1X 7LX,6047,4005,POINT (51.50281007 -0.15387405),SW,1X,7,LX,"The One Knightsbridge (WB), London West End (Westbound)",London,UK,Westminster,2,6,LIVE,,-0.15387405,51.50281007,700,01,,ALIST,DLF,0.8466,,,RS1235465755,735640704,735640706,,,MANUAL,,,sw1x7lx,EXTRA_LARGE,1,,
1235465756,DIGITAL,DLF,ROADSIDE,2022-10-01 16:22:49,2026-05-11 22:11:40,W1J 7JZ,6048,4084,POINT (51.50334645 -0.1495462),W,1J,7,JZ,"The One Knightsbridge (EB), London West End (Eastbound)",London,UK,London West End,2,6,LIVE,,-0.1495462,51.50334645,593,01,,ALIST,DLF,0.553,,,RS1235465756,372561884,372561889,,,MANUAL,,,w1j0aa,EXTRA_LARGE,1,,
1235465768,DIGITAL,48_SHEET,ROADSIDE,2022-10-23 20:26:20,2026-05-12 05:00:30,RM3 0AQ,0040,15740,POINT (51.6032051 0.24799715),RM,3,0,AQ,"A12 5 The Parade, Colchester Rd, Harold Wood",London,UK,Harold Wood,2,6,LIVE,,0.24799715,51.6032051,626,01,,D48,048,0.6324,,,RSD48B2,57780022,,5123637,,D48 V6 - 600 X 280,280,600,rm30aq,LARGE,0,,PREMIUM
1235465776,DIGITAL,48_SHEET,ROADSIDE,2022-10-23 20:26:17,2026-05-12 05:00:30,SW11 5RW,3220,4719,POINT (51.4665249 -0.15065091),SW,11,5,RW,"Queenstown Rd, 2 Lavender Hill, Clapham",London,UK,Clapham,2,6,LIVE,,-0.15065091,51.4665249,254,01,,D48,048,0.4229,,,RSD48B2,57784815,,5123637,,D48 V6 - 600 X 280,280,600,sw115rw,LARGE,0,,PREMIUM
1235465794,DIGITAL,48_SHEET,ROADSIDE,2022-10-23 20:26:15,2026-05-12 05:00:30,NW2 6ND,0232,15610,POINT (51.56355578 -0.22250412),NW,2,6,ND,"372 Edgware Rd, Neasden",London,UK,Neasden,2,6,LIVE,,-0.22250412,51.56355578,30,01,,D48,048,0.8655,,,RSD48B2,57780292,,5123637,,D48 V6 - 600 X 280,280,600,nw26nd,LARGE,0,,PREMIUM
1235465795,DIGITAL,48_SHEET,ROADSIDE,2022-10-23 20:26:15,2026-05-12 05:00:30,IG1 4DU,0233,5334,POINT (51.55842276 0.06947158),IG,1,4,DU,"73-77 High Rd, Ilford",London,UK,Ilford,2,6,LIVE,,0.06947158,51.55842276,395,01,,D48,048,1.9416,,,RSD48B3,57786794,,5123637,,D48 V6 - 600 X 280,280,600,ig14du,LARGE,0,,PLATINUM
1235465797,DIGITAL,48_SHEET,ROADSIDE,2022-10-23 20:26:15,2026-05-12 05:00:30,HA3 5DB,0226,15709,POINT (51.59301837 -0.33513222),HA,3,5,DB,"1 High St, Harrow Weald",London,UK,Harrow Weald,2,6,LIVE,,-0.33513222,51.59301837,482,01,,D48,048,0.5162,,,RSD48B2,57778983,,5123637,,D48 V6 - 600 X 280,280,600,ha35db,LARGE,0,,PREMIUM
1235465798,DIGITAL,48_SHEET,ROADSIDE,2022-10-23 20:26:15,2026-05-12 05:00:30,E4 8ST,0229,15710,POINT (51.60471826 -0.02402551),E,4,8,ST,"North Circular Rd, Southend Rd Opp Trinity Way, Chingford",London,UK,Chingford,2,6,LIVE,,-0.02402551,51.60471826,219,01,,D48,048,2.1009,,,RSD48B3,57778971,,5123637,,D48 V6 - 600 X 280,280,600,e48st,LARGE,0,,PLATINUM
1235465799,DIGITAL,48_SHEET,ROADSIDE,2022-10-23 20:26:15,2026-05-12 05:00:30,KT1 1SW,0154,15711,POINT (51.41221153 -0.30107717),KT,1,1,SW,"Wood St/Fife Rd, Kingston",London,UK,Kingston,2,6,LIVE,,-0.30107717,51.41221153,178,01,,D48,048,1.7974,,,RSD48B3,57789162,,5123637,,D48 V6 - 600 X 280,280,600,kt11sw,LARGE,0,,PLATINUM
1235465800,DIGITAL,48_SHEET,ROADSIDE,2022-10-23 20:26:50,2026-05-12 05:00:30,UB1 3DZ,0951,15553,POINT (51.50959193 -0.3565758),UB,1,3,DZ,"220 Uxbridge Rd, Shepherds Bush (Eastbound)",London,UK,Southall,2,6,LIVE,,-0.3565758,51.50959193,536,01,,D48,048,1.235,,,RSD48B3,57783014,,5123637,,D48 V6 - 600 X 280,280,600,ub13dz,LARGE,0,,PLATINUM
1235465801,DIGITAL,48_SHEET,ROADSIDE,2022-10-23 20:26:50,2026-05-12 05:00:30,NW2 1LJ,0087,15905,POINT (51.57219706 -0.22695425),NW,2,1,LJ,"Cardiff House,Tilling Rd/Brent Terrace, Cricklewood",London,UK,Cricklewood,2,6,LIVE,,-0.22695425,51.57219706,482,01,,D48,048,1.6347,,,RSD48B2,57779042,,5123637,,D48 V6 - 600 X 280,280,600,nw21lj,LARGE,0,,PREMIUM
1235465802,DIGITAL,48_SHEET,ROADSIDE,2022-10-23 20:26:50,2026-05-12 05:00:30,N17 9JF,1409,4969,POINT (51.59322424 -0.06950162),N,17,9,JF,"480 Tottenham High Rd, Tottenham",London,UK,Tottenham,2,6,LIVE,,-0.06950162,51.59322424,123,01,,D48,048,0.9125,,,RSD48B2,57782521,,5123637,,D48 V6 - 600 X 280,280,600,n179jf,LARGE,0,,PREMIUM
1235465803,DIGITAL,48_SHEET,ROADSIDE,2022-10-23 20:26:50,2026-05-12 05:00:30,W3 0TF,0080,15907,POINT (51.52686776 -0.28095857),W,3,0,TF,"600-610 Western Ave, Acton",London,UK,Acton,2,6,LIVE,,-0.28095857,51.52686776,512,01,,D48,048,0.9735,,,RSD48B2,57779263,,5123637,,D48 V6 - 600 X 280,280,600,w30tf,LARGE,0,,PREMIUM
1235465804,DIGITAL,48_SHEET,ROADSIDE,2022-10-23 20:26:50,2026-05-12 05:00:30,SE15 1JL,0168,7582,POINT (51.48119168 -0.06050484),SE,15,1,JL,"719 Old Kent Rd, Peckham",London,UK,Peckham,2,6,LIVE,,-0.06050484,51.48119168,154,01,,D48,048,0.8066,,,RSD48B2,57786698,,5123637,,D48 V6 - 600 X 280,280,600,se151jl,LARGE,0,,PREMIUM
1235465805,DIGITAL,48_SHEET,ROADSIDE,2022-10-23 20:26:50,2026-05-12 05:00:30,SW16 3PX,0207,4086,POINT (51.4229166 -0.12981656),SW,16,3,PX,"400-406 Streatham High Rd, Norbury",London,UK,Norbury,2,6,LIVE,,-0.12981656,51.4229166,158,01,,D48,048,1.486,,,RSD48B3,57778925,,5123637,,RS - ND48 576 X 288,288,576,sw163px,LARGE,0,,PLATINUM
1235465810,DIGITAL,48_SHEET,ROADSIDE,2022-10-23 20:26:48,2026-05-12 05:00:30,SW9 9PY,0122,4853,POINT (51.46915767 -0.11929442),SW,9,9,PY,"77 Stockwell Rd, Brixton",London,UK,Brixton,2,6,LIVE,,-0.11929442,51.46915767,194,01,,D48,048,0.6368,,,RSD48B2,57779940,,5123637,,D48 V6 - 600 X 280,280,600,sw99py,LARGE,0,,PREMIUM
1235465811,DIGITAL,48_SHEET,ROADSIDE,2022-10-23 20:26:48,2026-05-12 05:00:30,E17 5DJ,0751,15751,POINT (51.60058963 -0.01730337),E,17,5,DJ,"1 Cecil Rd/Crooked Billet Roundabout, Walthamstow",London,UK,Walthamstow,2,6,LIVE,,-0.01730337,51.60058963,262,01,,D48,048,0.5787,,,RSD48B2,57780467,,5123637,,D48 V6 - 600 X 280,280,600,e175dj,LARGE,0,,PREMIUM
1235465813,DIGITAL,48_SHEET,ROADSIDE,2022-10-23 20:26:48,2026-05-12 05:00:30,SE5 0TJ,2805,15894,POINT (51.47761246 -0.10145668),SE,5,0,TJ,"223 Camberwell New Rd/Wyndham Rd, Camberwell",London,UK,Camberwell,2,6,LIVE,,-0.10145668,51.47761246,48,01,,D48,048,0.735,,,RSD48B2,57778970,,5123637,,D48 V6 - 600 X 280,280,600,se50tj,LARGE,0,,PREMIUM
1235465814,DIGITAL,48_SHEET,ROADSIDE,2022-10-23 20:26:48,2026-05-12 05:00:30,W3 6NS,0902,15654,POINT (51.51008394 -0.27185465),W,3,6,NS,"35 Horn Ln, Acton",London,UK,Acton,2,6,LIVE,,-0.27185465,51.51008394,139,01,,D48,048,0.4938,,,RSD48B2,57780652,,5123637,,D48 V6 - 600 X 280,280,600,w36ns,LARGE,0,,PREMIUM
1235465815,DIGITAL,48_SHEET,ROADSIDE,2022-10-23 20:26:48,2026-05-12 05:00:30,NW4 3FP,0318,4088,POINT (51.57449852 -0.2217263),NW,4,3,FP,"North Circular Rd BC/15 Etheridge Rd D48, Hendon (Westbound)",London,UK,Hendon,2,6,LIVE,,-0.2217263,51.57449852,72,03,,D48,048,1.1974,,,RSD48B3,57780755,,5123637,,D48 V6 - 600 X 280,280,600,nw43fp,LARGE,0,,PLATINUM
1235465816,DIGITAL,48_SHEET,ROADSIDE,2022-10-23 20:26:48,2026-05-12 05:00:30,NW4 3FP,0318,4088,POINT (51.57509865 -0.22098794),NW,4,3,FP,"North Circular Rd BC/15 Etheridge Rd D48, Hendon (Eastbound)",London,UK,Hendon,2,6,LIVE,,-0.22098794,51.57509865,69,04,,D48,048,2.3337,,,RSD48B3,57779277,,5123637,,D48 V6 - 600 X 280,280,600,nw43fp,LARGE,0,,PLATINUM
1235470029,DIGITAL,48_SHEET,ROADSIDE,2022-10-23 19:12:39,2026-05-11 22:30:29,PO1 1BG,6046,495,POINT (50.79910493 -1.09107515),PO,1,1,BG,"Portsmouth Smartscreen, 104 Commercial Rd, Portsmouth",South and South-East,UK,Portsmouth,2,6,LIVE,,-1.09107515,50.79910493,256,01,,D48P,048,0.5221,,,RSD48P,57781646,,5123637,,RS - ND48 576 X 288,288,576,po11bg,LARGE,1,,
1235473548,DIGITAL,DLF,ROADSIDE,2022-10-01 16:22:49,2026-05-11 22:11:40,E3 3ND,9341,4100,POINT (51.52158626 -0.01062475),E,3,3,ND,"Blackwall Tnl App/Limehouse Cut, Bow (Northbound)",London,UK,Bow,2,6,LIVE,,-0.01062475,51.52158626,82,01,,DM6,DLF,0.9098,,,RSDM6L,57779463,,5123637,,DM6 V1 - 440 X 680,680,440,e33nd,,0,,
1235473553,DIGITAL,DLF,ROADSIDE,2022-10-01 16:23:34,2026-05-11 22:18:09,B69 4JL,9343,4149,POINT (52.50020548 -2.01075544),B,69,4,JL,"M5 Tower - 1 Stone St, Warley (Southbound)",Midlands,UK,Warley,2,6,LIVE,,-2.01075544,52.50020548,439,01,,DM6,DLF,1.0204,,,RSDM6,57782873,,5123637,,DM6 V2 - 480 X 720,720,480,b694jl,,0,,
1235473554,DIGITAL,DLF,ROADSIDE,2022-10-01 16:23:34,2026-05-11 22:18:09,B69 4JL,9343,4149,POINT (52.50021528 -2.01074471),B,69,4,JL,"M5 Tower - 1 Stone St, Warley (Northbound)",Midlands,UK,Warley,2,6,LIVE,,-2.01074471,52.50021528,438,02,,DM6,DLF,1.2097,,,RSDM6,57784491,,5123637,,DM6 V2 - 480 X 720,720,480,b694jl,,0,,
1235473557,DIGITAL,DLF,ROADSIDE,2022-10-01 16:22:50,2026-05-11 22:11:41,KT3 4RP,9350,4108,POINT (51.39936165 -0.2439707),KT,3,4,RP,"A3 Kingston Bypass/Shannon Corner, New Malden (Northbound)",London,UK,New Malden,2,6,LIVE,,-0.2439707,51.39936165,205,01,,DM6,DLF,0.9448,,,RSDM6L,759743720,759743736,,,MANUAL,,,kt34rp,,0,,
1235473558,DIGITAL,DLF,ROADSIDE,2022-10-01 16:22:50,2026-05-11 22:11:41,KT3 4RP,9350,4108,POINT (51.39936721 -0.24393718),KT,3,4,RP,"A3 Kingston Bypass/Shannon Corner, New Malden (Southbound)",London,UK,New Malden,2,6,LIVE,,-0.24393718,51.39936721,203,02,,DM6,DLF,1.8653,,,RSDM6L,372560504,372560507,,,MANUAL,,,kt34rp,,0,,
1235473561,DIGITAL,DLF,ROADSIDE,2022-10-01 16:22:51,2026-05-11 22:11:42,N11 1QD,9351,4124,POINT (51.61142918 -0.13564261),N,11,1,QD,"North Circular Rd/Station Rd, Southgate",London,UK,Southgate,2,6,LIVE,,-0.13564261,51.61142918,220,01,,DM6,DLF,1.2187,,,RSDM6L,57781565,,5123637,,DM6 V2 - 480 X 720,720,480,n111qd,,0,,
1235473569,DIGITAL,DLF,ROADSIDE,2022-10-01 16:24:18,2026-05-11 22:26:10,L3 8JX,9345,4160,POINT (53.41058608 -2.97603179),L,3,8,JX,"Islington/Norton St, Liverpool",North West,UK,Liverpool,2,6,LIVE,,-2.97603179,53.41058608,536,01,,DM6,DLF,2.0812,,,RSDM6,57780538,,5123637,,DM6 V2 - 480 X 720,720,480,l38jx,,0,,
1235473570,DIGITAL,DLF,ROADSIDE,2022-10-01 16:22:49,2026-05-11 22:11:40,NW4 3FP,9348,4088,POINT (51.57561892 -0.22030827),NW,4,3,FP,"North Circular Rd BC/15 Etheridge Rd DM6, Hendon (Eastbound)",London,UK,Hendon,2,6,LIVE,,-0.22030827,51.57561892,112,01,,DM6,DLF,1.4545,,,RSDM6L,372560500,372560502,,,MANUAL,,,nw43fp,,0,,
1235473571,DIGITAL,DLF,ROADSIDE,2022-10-01 16:22:49,2026-05-11 22:11:40,NW4 3FP,9348,4088,POINT (51.57577895 -0.22018221),NW,4,3,FP,"North Circular Rd BC/15 Etheridge Rd DM6, Hendon (Westbound)",London,UK,Hendon,2,6,LIVE,,-0.22018221,51.57577895,131,02,,DM6,DLF,1.3356,,,RSDM6L,372560500,372560503,,,MANUAL,,,nw43fp,,0,,
1235473572,DIGITAL,DLF,ROADSIDE,2022-10-01 16:22:49,2026-05-11 22:11:40,W12 8PH,9339,4089,POINT (51.50415397 -0.21799553),W,12,8,PH,"13-15 Shepherds Bush Green, Shepherds Bush",London,UK,Shepherds Bush,2,6,LIVE,,-0.21799553,51.50415397,385,01,,DM6,DLF,1.8204,,,RSDM6L,57784859,,5123637,,DM6 V2 - 480 X 720,720,480,w128ph,,0,,
1235473573,DIGITAL,DLF,ROADSIDE,2022-10-01 16:22:49,2026-05-11 22:11:40,SW16 6EX,9338,4086,POINT (51.42325864 -0.13001765),SW,16,6,EX,"398 Streatham High Rd, Streatham",London,UK,Streatham,2,6,LIVE,,-0.13001765,51.42325864,159,01,,DM6,DLF,0.7147,,,RSDM6L,57778729,,5123637,,DM6 V2 - 480 X 720,720,480,sw166ex,,0,,
1235473574,DIGITAL,DLF,ROADSIDE,2022-10-01 16:23:34,2026-05-11 22:18:09,B16 8TG,9347,4148,POINT (52.47272963 -1.91763801),B,16,8,TG,"5 Ways Park Regis Broad St, Birmingham (Westbound)",Midlands,UK,Birmingham,2,6,LIVE,,-1.91763801,52.47272963,215,01,,DM6,DLF,0.5874,,,RSDM6,372560600,372560603,,,MANUAL,,,b168tg,,0,,
1235473575,DIGITAL,DLF,ROADSIDE,2022-10-01 16:23:34,2026-05-11 22:18:09,B16 8TG,9347,4148,POINT (52.47287523 -1.9176531),B,16,8,TG,"5 Ways Park Regis Islington Row, Birmingham (Eastbound)",Midlands,UK,Birmingham,2,6,LIVE,,-1.9176531,52.47287523,220,02,,DM6,DLF,1.2566,,,RSDM6,372560600,372560602,,,MANUAL,,,b168tg,,0,,
1235473576,DIGITAL,DLF,ROADSIDE,2022-10-01 16:23:34,2026-05-11 22:18:09,B16 8TG,9520,4148,POINT (52.47280806 -1.91960139),B,16,8,TG,"1 Hagley Rd, Birmingham",Midlands,UK,Birmingham,3,6,LIVE,,-1.91960139,52.47280806,105,01,,DM6,DLF,0.4825,,,RSDM6,57781407,,5123637,,DM6 V1 - 440 X 680,680,440,b168tg,,0,,
1235473583,DIGITAL,DLF,ROADSIDE,2022-10-01 16:26:15,2026-05-11 22:14:25,EH15 1ED,9349,4200,POINT (55.96034186 -3.12598671),EH,15,1,ED,"2 Seafield Rd East, Edinburgh (Westbound)",Central Scotland,UK,Edinburgh,2,6,LIVE,,-3.12598671,55.96034186,984,01,,DM6,DLF,1.0353,,,RSDM6,372560807,372560809,,,MANUAL,,,eh151ed,,0,,
1235473584,DIGITAL,DLF,ROADSIDE,2022-10-01 16:26:15,2026-05-11 22:14:25,EH15 1ED,9349,4200,POINT (55.96035272 -3.12599828),EH,15,1,ED,"2 Seafield Rd East, Edinburgh (Eastbound)",Central Scotland,UK,Edinburgh,2,6,LIVE,,-3.12599828,55.96035272,985,02,,DM6,DLF,0.9647,,,RSDM6,372560807,372560996,,,MANUAL,,,eh151ed,,0,,
1235473676,DIGITAL,48_SHEET,ROADSIDE,2022-10-23 20:26:48,2026-05-12 05:00:30,N8 0PH,9380,15892,POINT (51.58904007 -0.11008282),N,8,0,PH,"114 Turnpike Ln, Wood Green",London,UK,Wood Green,2,6,LIVE,,-0.11008282,51.58904007,358,01,,D48,048,1.4709,,,RSD48B3,57780417,,5123637,,D48 V6 - 600 X 280,280,600,n80ph,LARGE,0,,PLATINUM
1235473679,DIGITAL,48_SHEET,ROADSIDE,2022-10-23 20:38:59,2026-05-12 05:00:30,LS12 2LS,9374,17405,POINT (53.79846607 -1.58615796),LS,12,2,LS,"212 Armely Rd, Leeds",Yorkshire,UK,Leeds,2,6,LIVE,,-1.58615796,53.79846607,285,01,,D48,048,1.243,,,RSD48B2,57780650,,5123637,,D48 V6 - 600 X 280,280,600,ls122ls,LARGE,0,,PREMIUM
1235473680,DIGITAL,48_SHEET,ROADSIDE,2022-10-23 20:30:27,2026-05-12 05:00:30,DY5 1UA,9368,16316,POINT (52.48411108 -2.11996644),DY,5,1,UA,"Level St Car Park, Brierly Hill, Dudley (Northbound)",Midlands,UK,Dudley,2,6,LIVE,,-2.11996644,52.48411108,591,01,,D48,048,0.732,,,RSD48B2,57788353,,5123637,,D48 V6 - 600 X 280,280,600,dy51ua,LARGE,0,,PREMIUM
1235473681,DIGITAL,48_SHEET,ROADSIDE,2022-10-23 20:30:27,2026-05-12 05:00:30,DY5 1UA,9368,16316,POINT (52.48411793 -2.11999232),DY,5,1,UA,"Level St Car Park, Brierly Hill, Dudley (Southbound)",Midlands,UK,Dudley,2,6,LIVE,,-2.11999232,52.48411793,589,02,,D48,048,0.9509,,,RSD48B2,57781683,,5123637,,D48 V6 - 600 X 280,280,600,dy51ua,LARGE,0,,PREMIUM
1235473682,DIGITAL,48_SHEET,ROADSIDE,2022-10-23 20:33:50,2026-05-12 05:00:30,M13 9XE,9377,16753,POINT (53.47212089 -2.22748701),M,13,9,XE,"50 Downing St, Manchester",North West,UK,Manchester,2,6,LIVE,,-2.22748701,53.47212089,130,01,,D48,048,0.9646,,,RSD48B2,57779817,,5123637,,D48 V6 - 600 X 280,280,600,m139xe,LARGE,0,,PREMIUM
1235473683,DIGITAL,48_SHEET,ROADSIDE,2022-10-23 19:24:50,2026-05-12 05:00:30,AB25 3PZ,9399,3754,POINT (57.1597691 -2.11352847),AB,25,3,PZ,"1 Leslie Terrace, Aberdeen (Southbound)",North Scotland,UK,Aberdeen,2,6,LIVE,,-2.11352847,57.1597691,447,01,,D48,048,1.4489,,,RSD48B2,57779929,,5123637,,D48 V6 - 600 X 280,280,600,ab253pz,LARGE,0,,PREMIUM
1235473686,DIGITAL,48_SHEET,ROADSIDE,2022-10-23 19:07:08,2026-05-12 05:00:30,EH6 7HB,9369,15238,POINT (55.97259342 -3.15527605),EH,6,7,HB,"112 Salamander St, Edinburgh",Central Scotland,UK,Edinburgh,2,6,LIVE,,-3.15527605,55.97259342,244,01,,D48,048,0.6891,,,RSD48B2,57779533,,5123637,,D48 V6 - 600 X 280,280,600,eh67hb,LARGE,0,,PREMIUM
1235473687,DIGITAL,48_SHEET,ROADSIDE,2022-10-23 20:30:26,2026-05-12 05:00:30,B11 1AJ,9357,9706,POINT (52.46519072 -1.87703046),B,11,1,AJ,"124 Stratford Rd, Birmingham",Midlands,UK,Birmingham,2,6,LIVE,,-1.87703046,52.46519072,154,01,,D48,048,0.4532,,,RSD48B1,57783194,,5123637,,D48 V6 - 600 X 280,280,600,b111aj,LARGE,0,,CORE
1235473688,DIGITAL,48_SHEET,ROADSIDE,2022-10-23 20:30:26,2026-05-12 05:00:30,B6 4LD,9361,16310,POINT (52.49209034 -1.89266214),B,6,4,LD,"A4540 Newton Middleway/Blews St, Birmingham",Midlands,UK,Birmingham,2,6,LIVE,,-1.89266214,52.49209034,410,01,,D48,048,1.1951,,,RSD48B2,57784579,,5123637,,D48 V6 - 600 X 280,280,600,b64ld,LARGE,0,,PREMIUM
1235473689,DIGITAL,48_SHEET,ROADSIDE,2022-10-23 20:39:01,2026-05-12 05:00:30,S9 2YL,9395,12696,POINT (53.40948409 -1.40796902),S,9,2,YL,"Sheffield Rd, Adj 100, Sheffield",Yorkshire,UK,Sheffield,2,6,LIVE,,-1.40796902,53.40948409,640,01,,D48,048,0.781,,,RSD48B2,57780342,,5123637,,D48 V6 - 600 X 280,280,600,s92yl,LARGE,0,,PREMIUM
1235473692,DIGITAL,48_SHEET,ROADSIDE,2022-10-23 20:30:22,2026-05-12 05:00:30,DY2 8NW,9366,16284,POINT (52.50834797 -2.07962285),DY,2,8,NW,"Duncan Edwards Way/Dudley Row, Dudley (Northbound)",Midlands,UK,Dudley,2,6,LIVE,,-2.07962285,52.50834797,402,01,,D48,048,0.9093,,,RSD48B2,57783291,,5123637,,D48 V6 - 600 X 280,280,600,dy28nw,LARGE,0,,PREMIUM
1235473693,DIGITAL,48_SHEET,ROADSIDE,2022-10-23 20:30:22,2026-05-12 05:00:30,DY2 8NW,9366,16284,POINT (52.5083547 -2.07961244),DY,2,8,NW,"Duncan Edwards Way/Dudley Row, Dudley (Southbound)",Midlands,UK,Dudley,2,6,LIVE,,-2.07961244,52.5083547,401,02,,D48,048,1.1692,,,RSD48B2,57785610,,5123637,,D48 V6 - 600 X 280,280,600,dy28nw,LARGE,0,,PREMIUM
1235473694,DIGITAL,48_SHEET,ROADSIDE,2022-10-23 20:38:56,2026-05-12 05:00:30,S6 3BN,9396,17384,POINT (53.3926104 -1.48284468),S,6,3,BN,"Penistone Rd SS/Albert Terrace Rd, Sheffield",Yorkshire,UK,Sheffield,2,6,LIVE,,-1.48284468,53.3926104,632,01,,D48,048,1.6678,,,RSD48B2,57780644,,5123637,,D48 V6 - 600 X 280,280,600,s63bn,LARGE,0,,PREMIUM
1235473695,DIGITAL,48_SHEET,ROADSIDE,2022-10-23 20:30:21,2026-05-12 05:00:30,B11 2QX,9359,42,POINT (52.45333539 -1.855315),B,11,2,QX,"Warwick Rd, Adj 285, Birmingham (Westbound)",Midlands,UK,Birmingham,2,6,LIVE,,-1.855315,52.45333539,97,01,,D48,048,0.8037,,,RSD48B1,57780936,,5123637,,D48 V6 - 600 X 280,280,600,b112qx,LARGE,0,,CORE
1235473696,DIGITAL,48_SHEET,ROADSIDE,2022-10-23 20:26:47,2026-05-12 05:00:30,NW2 7HW,9382,15887,POINT (51.56980685 -0.23666137),NW,2,7,HW,"160 Coles Green Rd, Staples Corner, Neasden",London,UK,Neasden,2,6,LIVE,,-0.23666137,51.56980685,705,01,,D48,048,2.1472,,,RSD48B3,57778887,,5123637,,D48 V6 - 600 X 280,280,600,nw27hw,LARGE,0,,PLATINUM
1235473697,DIGITAL,48_SHEET,ROADSIDE,2022-10-23 20:26:47,2026-05-12 05:00:30,SE20 7QB,9387,7430,POINT (51.41167025 -0.04897581),SE,20,7,QB,"184 High St, Penge",London,UK,Penge,2,6,LIVE,,-0.04897581,51.41167025,19,01,,D48,048,0.4764,,,RSD48B2,57780003,,5123637,,D48 V6 - 600 X 280,280,600,se207qb,LARGE,0,,PREMIUM
1235473698,DIGITAL,48_SHEET,ROADSIDE,2022-10-01 16:13:42,2026-05-11 22:04:11,DD1 3JS,9365,3741,POINT (56.46438677 -2.95495072),DD,1,3,JS,"35 East Dock St, Dundee (Eastbound)",North Scotland,UK,Dundee,2,6,LIVE,,-2.95495072,56.46438677,364,01,,D48,048,0.8986,,,RSD48,57788656,,5123637,,D48 V6 - 600 X 280,280,600,dd13js,LARGE,0,,
1235473699,DIGITAL,48_SHEET,ROADSIDE,2022-10-01 16:13:42,2026-05-11 22:04:10,DD1 3JS,9365,3741,POINT (56.46441515 -2.95467947),DD,1,3,JS,"35 East Dock St, Dundee (Westbound)",North Scotland,UK,Dundee,2,6,LIVE,,-2.95467947,56.46441515,360,02,,D48,048,0.8986,,,RSD48,57779046,,5123637,,D48 V6 - 600 X 280,280,600,dd13js,LARGE,0,,
1235473700,DIGITAL,48_SHEET,ROADSIDE,2022-10-23 20:33:19,2026-05-12 05:00:30,L8 9RF,9373,16532,POINT (53.38088738 -2.9577868),L,8,9,RF,"Park Rd/Dingle Ln, Liverpool",North West,UK,Liverpool,2,6,LIVE,,-2.9577868,53.38088738,215,01,,D48,048,0.6772,,,RSD48B2,57781807,,5123637,,D48 V6 - 600 X 280,280,600,l89rf,LARGE,0,,PREMIUM
1235473701,DIGITAL,48_SHEET,ROADSIDE,2022-10-23 20:33:19,2026-05-12 05:00:30,M6 5RD,9379,16530,POINT (53.48332646 -2.30518807),M,6,5,RD,"M602 Adj Buckingham Rd, Salford (Eastbound)",North West,UK,Salford,2,6,LIVE,,-2.30518807,53.48332646,491,01,,D48,048,0.867,,,RSD48B2,57780051,,5123637,,D48 V6 - 600 X 280,280,600,m65rd,LARGE,0,,PREMIUM
1235473702,DIGITAL,48_SHEET,ROADSIDE,2022-10-23 20:33:18,2026-05-12 05:00:30,M6 5RD,9379,16530,POINT (53.48323834 -2.30452076),M,6,5,RD,"M602 Adj Buckingham Rd, Salford (Westbound)",North West,UK,Salford,2,6,LIVE,,-2.30452076,53.48323834,456,02,,D48,048,1.567,,,RSD48B2,57779703,,5123637,,D48 V6 - 600 X 280,280,600,m65rd,LARGE,0,,PREMIUM
1235473704,DIGITAL,48_SHEET,ROADSIDE,2022-10-23 20:38:52,2026-05-12 05:00:30,LS12 6AE,9375,17152,POINT (53.78014797 -1.59159902),LS,12,6,AE,"Ring Rd/Royds Ln, Leeds (Eastbound)",Yorkshire,UK,Leeds,2,6,LIVE,,-1.59159902,53.78014797,493,01,,D48,048,1.5621,,,RSD48B2,57780118,,5123637,,D48 V6 - 600 X 280,280,600,ls126ae,LARGE,0,,PREMIUM
2000022892,DIGITAL,AIRPORT_DIGITAL_OTHER,AIRPORT,2023-01-18 22:02:03,2026-05-11 22:04:01,RH6 0NP,2969,2498,POINT (51.15646254 -0.16232315),RH,6,0,NP,LGW1 - South Terminal (A) 800 Gatwick Grand Arrivals Hall,London,UK,Horley,2,6,LIVE,,-0.16232315,51.15646254,1633,02,,DLMP,PAD,1,,GATWICK AIRPORT,APDLMPGA,57782856,,5123637,,AIR LGW 800 GRAND,192,992,rh60np,EXTRA_LARGE,1,,
2000023802,DIGITAL,48_SHEET,ROADSIDE,2022-10-23 19:12:37,2026-05-11 22:30:28,SO15 1DH,6033,15325,POINT (50.90529285 -1.41676746),SO,15,1,DH,"Smartscreen, Mountbatten Way/Southern Rd, Southampton",South and South-East,UK,Southampton,2,6,LIVE,,-1.41676746,50.90529285,572,01,,D48P,048,0.6257,,,RSD48P,57783900,,5123637,,RS - ND48 576 X 288,288,576,so151jf,LARGE,1,,
2000032698,DIGITAL,6_SHEET,AIRPORT,2023-01-18 22:03:53,2026-05-11 22:08:06,M90 5PZ,1141,1442,POINT (53.36167189 -2.27539785),M,90,5,PZ,MAN1 - T1 (D) D14 Departure Lounge at Foodcourt,North West,UK,Manchester,2,6,LIVE,,-2.27539785,53.36167189,1227,02,,D06,006,1.8775,,MANCHESTER AIRPORT,APD06MA,57780680,,5123637,,AIR AIRPORT D6,1920,1080,m905pz,SMALL,0,,
2000032699,DIGITAL,6_SHEET,AIRPORT,2023-01-18 22:03:53,2026-05-11 22:08:05,M90 5PZ,3053,1442,POINT (53.36050531 -2.2701536),M,90,5,PZ,MAN3 - T3 (D) D5 BA/FlyBe Business Lounge,North West,UK,Manchester,2,6,LIVE,,-2.2701536,53.36050531,1154,02,,D06,006,0.6402,,MANCHESTER AIRPORT,APD06MA,57781182,,5123637,,AIR AIRPORT D6,1920,1080,m905pz,SMALL,0,,
2000032700,DIGITAL,6_SHEET,AIRPORT,2023-01-18 22:03:59,2026-05-11 22:08:16,M90 5PZ,3123,1442,POINT (53.36060745 -2.2697423),M,90,5,PZ,MAN3 - T3 (D) D12 Upper Dept Lounge at Biza,North West,UK,Manchester,2,6,LIVE,,-2.2697423,53.36060745,1133,02,,D06,006,1.5159,,MANCHESTER AIRPORT,APD06MA,57785549,,5123637,,AIR AIRPORT D6,1920,1080,m905pz,SMALL,0,,
2000032701,DIGITAL,6_SHEET,AIRPORT,2023-01-18 22:03:59,2026-05-11 22:08:15,M90 5PZ,3143,1442,POINT (53.3609361 -2.27078817),M,90,5,PZ,MAN3 - T3 (D) D14 Departure Corridor,North West,UK,Manchester,2,6,LIVE,,-2.27078817,53.3609361,1128,02,,D06,006,2.6106,,MANCHESTER AIRPORT,APD06MA,57780839,,5123637,,AIR AIRPORT D6,1920,1080,m905pz,SMALL,0,,
2000032751,DIGITAL,6_SHEET,AIRPORT,2023-01-18 22:01:19,2026-05-11 22:02:05,DE74 2SA,0100,2623,POINT (52.82603387 -1.33075093),DE,74,2,SA,EMA - (D) D1 Check-in Hall,Midlands,UK,Castle Donnington,2,6,LIVE,,-1.33075093,52.82603387,860,02,,D06,006,0.3324,,EAST MIDLANDS AIRPORT,APD06EA,57781247,,5123637,,AIR AIRPORT D6,1920,1080,de742sa,SMALL,0,,
2000032752,DIGITAL,6_SHEET,AIRPORT,2023-01-18 22:01:19,2026-05-11 22:02:05,DE74 2SA,0102,2623,POINT (52.82675903 -1.33110379),DE,74,2,SA,EMA - (D) D2 Departure Lounge,Midlands,UK,Castle Donnington,2,6,LIVE,,-1.33110379,52.82675903,941,02,,D06,006,0.3419,,EAST MIDLANDS AIRPORT,APD06EA,57780613,,5123637,,AIR AIRPORT D6,1920,1080,de742sa,SMALL,0,,
2000032763,DIGITAL,6_SHEET,AIRPORT,2023-01-18 22:08:27,2026-05-11 22:19:35,CM24 1BA,2895,1802,POINT (51.88614 0.238893),CM,24,1,BA,STN2 - (D) D14 SATELLITE 3 DEPARTURES,London,UK,Stansted Mount Fitchet,2,6,LIVE,,0.238893,51.88614,2212,02,,D06,006,0.3699,,STANSTED AIRPORT,APD06ST,57780733,,5123637,,AIR AIRPORT D6,1920,1080,cm241ba,SMALL,0,,
2000032786,DIGITAL,6_SHEET,AIRPORT,2023-01-18 22:04:09,2026-05-11 22:08:33,M90 5PZ,2946,1442,POINT (53.36059625 -2.27042687),M,90,5,PZ,MAN3 - T3 (D) D6 BMI Business Lounge,North West,UK,Manchester,2,6,LIVE,,-2.27042687,53.36059625,1152,02,,D06,006,1.5595,,MANCHESTER AIRPORT,APD06MA,57782638,,5123637,,AIR AIRPORT D6,1920,1080,m905pz,SMALL,0,,
2000032888,DIGITAL,AIRPORT_DIGITAL_OTHER,AIRPORT,2023-01-18 22:02:03,2026-05-11 22:04:01,RH6 0NP,3065,2498,POINT (51.157929 -0.163945),RH,6,0,NP,LGW1 - South Terminal (D) 930 ITTS Sponsorship ITTS Platform,London,UK,Horley,2,6,LIVE,,-0.163945,51.157929,1222,02,,ITS,PAD,0.6234,,GATWICK AIRPORT,APITSGA,,,,,MANUAL,,,rh60np,,0,,
2000032889,DIGITAL,AIRPORT_DIGITAL_OTHER,AIRPORT,2023-01-18 22:02:03,2026-05-11 22:04:01,RH6 0NP,3066,2498,POINT (51.157929 -0.163945),RH,6,0,NP,LGW2 - North Terminal (D) 905 ITTS Sponsorship ITTS Platform,London,UK,Horley,2,6,LIVE,,-0.163945,51.157929,1764,02,,ITS,PAD,1.3766,,GATWICK AIRPORT,APITSGA,,,,,MANUAL,,,rh60np,,0,,
2000032982,DIGITAL,AIRPORT_DIGITAL_OTHER,AIRPORT,2023-01-18 22:02:03,2026-05-11 22:04:01,RH6 0NP,3213,2498,POINT (51.157929 -0.163945),RH,6,0,NP,LGW1 - South Terminal (D) 921 ITTS Sponsorship 24x internal train screens,London,UK,Horley,3,6,LIVE,,-0.163945,51.157929,1867,02,,ITS,PAD,0.9511,,GATWICK AIRPORT,APITSGA,,,,,MANUAL,,,rh60np,,0,,
2000033028,DIGITAL,AIRPORT_DIGITAL_OTHER,AIRPORT,2023-01-18 22:12:36,2026-05-11 22:30:11,CM24 1BA,2861,1802,POINT (51.88614 0.238893),CM,24,1,BA,STN2 - (D) 870 CURVED DIGITAL DEPARTURES PRE WDF,London,UK,Stansted Mount Fitchet,2,6,LIVE,,0.238893,51.88614,2191,02,,DLM,PAD,1.0217,,STANSTED AIRPORT,APDLMST,121843683,,,,MANUAL,,,cm241ba,,0,,
2000033043,DIGITAL,AIRPORT_DIGITAL_OTHER,AIRPORT,2023-01-18 22:12:36,2026-05-11 22:30:11,CM24 1BA,2959,1802,POINT (51.88614 0.238893),CM,24,1,BA,STN2 - (D) 871 CURVED DEPARTURE LOUNGE DIGITAL,London,UK,Stansted Mount Fitchet,2,6,LIVE,,0.238893,51.88614,2177,02,,DLM,PAD,1.8232,,STANSTED AIRPORT,APDLMST,121843708,,,,MANUAL,,,cm241ba,,0,,
2000059939,DIGITAL,48_SHEET,ROADSIDE,2022-10-23 19:12:28,2026-05-12 05:00:30,BN1 3XG,6050,15257,POINT (50.82608249 -0.1422205),BN,1,3,XG,"Brighton Lights, 113 Queens Rd, Brighton",South and South-East,UK,Brighton,2,6,LIVE,,-0.1422205,50.82608249,116,01,,D48P,048,1.3743,,,RS2000059939,57780946,,5123637,,RS - ND48 576 X 288,288,576,bn13xg,LARGE,1,,
2000062469,DIGITAL,48_SHEET,ROADSIDE,2022-10-23 20:25:43,2026-05-12 05:00:30,SE11 5AW,9015,15476,POINT (51.48630495 -0.12212009),SE,11,5,AW,"(H&S) Vauxhall Cross, Harleyford Rd/Goding St, Kennington",London,UK,Kennington,2,6,LIVE,,-0.12212009,51.48630495,134,00,,D48,048,2.3086,,,RSD48B3,57780018,,5123637,,RS - ND48 576 X 288,288,576,se115aw,LARGE,0,,PLATINUM
2000062720,DIGITAL,48_SHEET,ROADSIDE,2022-10-23 20:33:34,2026-05-12 05:00:30,M3 7AA,9151,13684,POINT (53.48477816 -2.24893134),M,3,7,AA,"Chapel St/Blackfriars St, Salford",North West,UK,Salford,2,6,LIVE,,-2.24893134,53.48477816,314,00,,D48,048,0.7173,,,RSD48B2,57780385,,5123637,,RS - ND48 576 X 288,288,576,m37aa,LARGE,0,,PREMIUM
2000062721,DIGITAL,96_SHEET,ROADSIDE,2022-10-01 16:04:55,2026-05-11 22:04:31,CV1 3EQ,9156,26,POINT (52.40693155 -1.51902594),CV,1,3,EQ,"Ringway Rudge, Skydome, Coventry",Midlands,UK,Coventry,2,6,LIVE,,-1.51902594,52.40693155,331,00,,D96,096,0.6496,,,RSD96,57780089,,5123637,,RS - D96 1024 X 256,256,1024,cv13eq,EXTRA_LARGE,0,,
